country_code,region_name,iata,icao,airport,latitude,longitude
US,Alabama,AIV,KAIV,George Downer Airport,33.1065,-88.1978
US,Alabama,ALX,KALX,Thomas C. Russell Field,32.9147,-85.963
US,Alabama,ANB,KANB,Anniston Regional Airport,33.5882,-85.8581
US,Alabama,ASN,KASN,Talladega Municipal Airport,33.5699,-86.0509
US,Alabama,AUO,KAUO,Auburn University Regional Airport,32.6151,-85.434
US,Alabama,BFM,KBFM,Mobile Downtown Airport,30.6268,-88.0681
US,Alabama,BHM,KBHM,Birmingham-Shuttlesworth International Airport,33.5629,-86.7535
US,Alabama,DCU,KDCU,Pryor Field Regional Airport,34.6527,-86.9454
US,Alabama,DHN,KDHN,Dothan Regional Airport,31.3213,-85.4496
US,Alabama,ETS,KEDN,Enterprise Municipal Airport,31.2997,-85.8999
US,Alabama,EUF,KEUF,Weedon Field,31.9513,-85.1289
US,Alabama,GAD,KGAD,Northeast Alabama Regional Airport,33.9726,-86.089
US,Alabama,GUF,KJKA,Jack Edwards Airport,30.2905,-87.6718
US,Alabama,HAB,KHAB,Marion County - Rankin Fite Airport,34.1176,-87.9982
US,Alabama,HSV,KHSV,Huntsville International Airport (Carl T. Jones Field),34.6372,-86.7751
US,Alabama,HUA,KHUA,Redstone Army Airfield,34.6787,-86.6848
US,Alabama,MGM,KMGM,Montgomery Regional Airport (Dannelly Field),32.3006,-86.394
US,Alabama,MOB,KMOB,Mobile Regional Airport,30.6912,-88.2428
US,Alabama,MSL,KMSL,Northwest Alabama Regional Airport,34.7453,-87.6102
US,Alabama,MVC,KMVC,Monroe County Airport,31.458,-87.351
US,Alabama,MXF,KMXF,Maxwell Air Force Base,32.3829,-86.3658
US,Alabama,NHX,KNBJ,NOLF Barin,30.3891,-87.6353
US,Alabama,OZR,KOZR,Cairns Army Airfield,31.2757,-85.7134
US,Alabama,PLR,KPLR,St. Clair County Airport,33.5588,-86.2491
US,Alabama,SEM,KSEM,Craig Field,32.3439,-86.9878
US,Alabama,TCL,KTCL,Tuscaloosa Regional Airport,33.2206,-87.6114
US,Alabama,TGE,,Sharpe Field,32.4919,-85.7756
US,Alabama,TOI,KTOI,Troy Municipal Airport,31.8604,-86.0121
US,Arizona,AVW,KAVQ,Marana Regional Airport,32.4096,-111.218
US,Arizona,AZA,KIWA,Phoenix-Mesa Gateway Airport,33.3078,-111.655
US,Arizona,BGT,,Bagdad Airport,34.5959,-113.17
US,Arizona,BSQ,,Bisbee Municipal Airport,31.364,-109.883
US,Arizona,BXK,KBXK,Buckeye Municipal Airport,33.4204,-112.686
US,Arizona,CFT,KCFT,Greenlee County Airport,32.9528,-109.21
US,Arizona,CGZ,KCGZ,Casa Grande Municipal Airport,32.9549,-111.767
US,Arizona,CTW,,Cottonwood Airport,34.73,-112.035
US,Arizona,CWX,,Cochise County Airport,32.2454,-109.895
US,Arizona,DGL,KDGL,Douglas Municipal Airport,31.3426,-109.506
US,Arizona,DMA,KDMA,Davis-Monthan Air Force Base,32.1665,-110.883
US,Arizona,DUG,KDUG,Bisbee Douglas International Airport,31.469,-109.604
US,Arizona,DVT,KDVT,Phoenix Deer Valley Airport,33.6883,-112.083
US,Arizona,FHU,KFHU,Sierra Vista Municipal Airport (Libby Army Airfield),31.5885,-110.344
US,Arizona,FLG,KFLG,Flagstaff Pulliam Airport,35.1385,-111.671
US,Arizona,GCN,KGCN,Grand Canyon National Park Airport,35.9524,-112.147
US,Arizona,GCW,,Grand Canyon West Airport,35.9904,-113.816
US,Arizona,GLB,,San Carlos Apache Airport,33.3531,-110.667
US,Arizona,GYR,KGYR,Phoenix Goodyear Airport,33.4225,-112.376
US,Arizona,HBK,,Holbrook Municipal Airport,34.9407,-110.138
US,Arizona,HII,KHII,Lake Havasu City Airport,34.5711,-114.358
US,Arizona,IFP,KIFP,Laughlin/Bullhead International Airport,35.1574,-114.56
US,Arizona,IGM,KIGM,Kingman Airport,35.2595,-113.938
US,Arizona,INW,KINW,Winslow-Lindbergh Regional Airport,35.0219,-110.723
US,Arizona,LGF,KLGF,Laguna Army Airfield,32.86,-114.397
US,Arizona,LUF,KLUF,Luke Air Force Base,33.535,-112.383
US,Arizona,MSC,KFFZ,Falcon Field Airport,33.4608,-111.728
US,Arizona,MVM,,Kayenta Airport,36.7164,-110.228
US,Arizona,MYH,,Marble Canyon Airport,36.8116,-111.642
US,Arizona,MZJ,KMZJ,Pinal Airpark,32.5106,-111.328
US,Arizona,OLS,KOLS,Nogales International Airport,31.4177,-110.848
US,Arizona,PGA,KPGA,Page Municipal Airport,36.9261,-111.448
US,Arizona,PGS,,Grand Canyon Caverns Airport,35.5713,-113.293
US,Arizona,PHX,KPHX,Phoenix Sky Harbor International Airport,33.4343,-112.012
US,Arizona,PJB,KPAN,Payson Airport,34.2568,-111.339
US,Arizona,PRC,KPRC,Ernest A. Love Field,34.6545,-112.42
US,Arizona,PXL,,Polacca Airport,35.7917,-110.423
US,Arizona,SAD,KSAD,Safford Regional Airport,32.8548,-109.635
US,Arizona,SCF,KSDL,Scottsdale Airport,33.6229,-111.911
US,Arizona,SDX,KSEZ,Sedona Airport,34.8486,-111.788
US,Arizona,SJN,KSJN,St. Johns Industrial Air Park,34.5186,-109.379
US,Arizona,SOW,KSOW,Show Low Regional Airport,34.2655,-110.006
US,Arizona,TBC,,Tuba City Airport,36.0928,-111.383
US,Arizona,TUS,KTUS,Tucson International Airport,32.1161,-110.941
US,Arizona,TYZ,KTYL,Taylor Airport,34.4528,-110.115
US,Arizona,VLE,,Valle Airport,35.6506,-112.148
US,Arizona,WTR,,Whiteriver Airport,33.8125,-109.987
US,Arizona,YUM,KNYL,Yuma International Airport / MCAS Yuma,32.6566,-114.606
US,Arkansas,AGO,KAGO,Magnolia Municipal Airport,33.228,-93.217
US,Arkansas,ARG,KARG,Walnut Ridge Regional Airport,36.1247,-90.9251
US,Arkansas,AWM,KAWM,West Memphis Municipal Airport,35.1351,-90.2344
US,Arkansas,BVX,KBVX,Batesville Regional Airport,35.7262,-91.6473
US,Arkansas,BYH,KBYH,Arkansas International Airport,35.9643,-89.944
US,Arkansas,CDH,KCDH,Harrell Field,33.6228,-92.7634
US,Arkansas,CKK,KCVK,Sharp County Regional Airport,36.2649,-91.5626
US,Arkansas,CRT,KCRT,Z. M. Jack Stell Field,33.1783,-91.8802
US,Arkansas,ELD,KELD,South Arkansas Regional Airport at Goodwin Field,33.221,-92.8133
US,Arkansas,FCY,KFCY,Forrest City Municipal Airport,34.942,-90.775
US,Arkansas,FLP,KFLP,Marion County Regional Airport,36.2909,-92.5903
US,Arkansas,FSM,KFSM,Fort Smith Regional Airport,35.3366,-94.3674
US,Arkansas,FYV,KFYV,Drake Field (Fayetteville Executive Airport),36.0051,-94.1701
US,Arkansas,HEE,KHEE,Thompson-Robbins Airport,34.5766,-90.6762
US,Arkansas,HKA,KHKA,Blytheville Municipal Airport,35.9404,-89.8308
US,Arkansas,HOT,KHOT,Memorial Field Airport,34.478,-93.0962
US,Arkansas,HRO,KHRO,Boone County Airport,36.2615,-93.1547
US,Arkansas,JBR,KJBR,Jonesboro Municipal Airport,35.8317,-90.6464
US,Arkansas,LIT,KLIT,Clinton National Airport (Adams Field),34.7294,-92.2243
US,Arkansas,LRF,KLRF,Little Rock Air Force Base,34.9169,-92.1497
US,Arkansas,MPJ,KMPJ,Petit Jean Park Airport,35.1389,-92.9092
US,Arkansas,MXA,KMXA,Manila Municipal Airport,35.8944,-90.1546
US,Arkansas,PBF,KPBF,Grider Field,34.1731,-91.9356
US,Arkansas,PGR,KPGR,Kirk Field,36.0629,-90.5078
US,Arkansas,ROG,KROG,Rogers Municipal Airport (Carter Field),36.3723,-94.1069
US,Arkansas,SGT,KSGT,Stuttgart Municipal Airport,34.5995,-91.575
US,Arkansas,SLG,KSLG,Smith Field,36.1919,-94.49
US,Arkansas,SPZ,KASG,Springdale Municipal Airport,36.1764,-94.1193
US,Arkansas,SRC,KSRC,Searcy Municipal Airport,35.2106,-91.7375
US,Arkansas,TXK,KTXK,Texarkana Regional Airport (Webb Field),33.4537,-93.991
US,Arkansas,WMH,KBPK,Ozark Regional Airport,36.3689,-92.4705
US,Arkansas,XNA,KXNA,Northwest Arkansas Regional Airport,36.2819,-94.3068
US,Arkansas,,KVBT,Bentonville Municipal Airport,36.3458,-94.2194
US,California,ACV,KACV,Arcata-Eureka Airport,40.9781,-124.109
US,California,AHC,KAHC,Amedee Army Airfield,40.2662,-120.153
US,California,APC,KAPC,Napa County Airport,38.2132,-122.281
US,California,APV,KAPV,Apple Valley Airport,34.5753,-117.186
US,California,AUN,KAUN,Auburn Municipal Airport,38.9548,-121.082
US,California,AVX,KAVX,Catalina Airport,33.4049,-118.416
US,California,BAB,KBAB,Beale Air Force Base,39.1361,-121.437
US,California,BFL,KBFL,Meadows Field Airport,35.4336,-119.057
US,California,BIH,KBIH,Eastern Sierra Regional Airport,37.3731,-118.364
US,California,BLH,KBLH,Blythe Airport,33.6192,-114.717
US,California,BLU,KBLU,Blue Canyon-Nyack Airport,39.275,-120.71
US,California,BNG,KBNG,Banning Municipal Airport,33.9231,-116.851
US,California,BUR,KBUR,Bob Hope Airport,34.2007,-118.359
US,California,BWC,KBWC,Brawley Municipal Airport,32.9929,-115.517
US,California,BXS,,Borrego Valley Airport,33.259,-116.321
US,California,BYS,KBYS,Bicycle Lake Army Airfield (Fort Irwin),35.2805,-116.63
US,California,BZF,,Benton Field,40.5749,-122.408
US,California,CCB,KCCB,Cable Airport,34.1116,-117.688
US,California,CCR,KCCR,Buchanan Field Airport,37.9897,-122.057
US,California,CEC,KCEC,Del Norte County Airport (Jack McNamara Field),41.7802,-124.237
US,California,CIC,KCIC,Chico Municipal Airport,39.7954,-121.858
US,California,CKE,,Lampson Field,38.9906,-122.901
US,California,CLD,KCRQ,McClellan-Palomar Airport,33.1283,-117.28
US,California,CLG,,New Coalinga Municipal Airport,36.1631,-120.294
US,California,CLR,KCLR,Cliff Hatfield Memorial Airport,33.1315,-115.521
US,California,CNO,KCNO,Chino Airport,33.9747,-117.637
US,California,COA,,Columbia Airport,38.0304,-120.415
US,California,CPM,KCPM,Compton/Woodley Airport,33.89,-118.244
US,California,CRO,KCRO,Corcoran Airport,36.1025,-119.595
US,California,CSL,,Camp San Luis Obispo Heliport,35.3261,-120.7429
US,California,CXL,KCXL,Calexico International Airport,32.6695,-115.513
US,California,DAG,KDAG,Barstow-Daggett Airport,34.8537,-116.787
US,California,DTH,,Furnace Creek Airport,36.4638,-116.881
US,California,EDW,KEDW,Edwards Air Force Base,34.9054,-117.884
US,California,EED,KEED,Needles Airport,34.7663,-114.623
US,California,EKA,KEKA,Murray Field,40.8034,-124.113
US,California,EMT,KEMT,San Gabriel Valley Airport,34.0861,-118.035
US,California,FAT,KFAT,Fresno Yosemite International Airport,36.7762,-119.718
US,California,FCH,KFCH,Fresno Chandler Executive Airport,36.7324,-119.82
US,California,FOB,,Fort Bragg Airport,39.4743,-123.796
US,California,FUL,KFUL,Fullerton Municipal Airport,33.872,-117.98
US,California,GNF,,Gansner Field,39.9439,-120.945
US,California,HAF,KHAF,Half Moon Bay Airport,37.5134,-122.501
US,California,HHR,KHHR,Hawthorne Municipal Airport (Jack Northrop Field),33.9228,-118.335
US,California,HLI,KCVH,Hollister Municipal Airport,36.8933,-121.41
US,California,HMT,KHMT,Hemet-Ryan Airport,33.734,-117.023
US,California,HWD,KHWD,Hayward Executive Airport,37.6592,-122.122
US,California,IPL,KIPL,Imperial County Airport (Boley Field),32.8342,-115.579
US,California,IYK,KIYK,Inyokern Airport,35.6588,-117.83
US,California,KIC,KKIC,Mesa Del Rey Airport,36.228,-121.122
US,California,LAX,KLAX,Los Angeles International Airport,33.9425,-118.408
US,California,LGB,KLGB,Long Beach Airport,33.8177,-118.152
US,California,LPC,KLPC,Lompoc Airport,34.6656,-120.468
US,California,LSN,KLSN,Los Banos Municipal Airport,37.0629,-120.869
US,California,LVK,KLVK,Livermore Municipal Airport,37.6934,-121.82
US,California,MAE,KMAE,Madera Municipal Airport,36.9886,-120.112
US,California,MCC,KMCC,McClellan Airfield,38.6676,-121.401
US,California,MCE,KMCE,Merced Regional Airport (MacReady Field),37.2847,-120.514
US,California,MER,KMER,Castle Airport,37.3805,-120.568
US,California,MHR,KMHR,Sacramento Mather Airport,38.5539,-121.298
US,California,MHS,,Dunsmuir Municipal-Mott Airport,41.2632,-122.272
US,California,MHV,KMHV,Mojave Air and Space Port,35.0594,-118.152
US,California,MIT,KMIT,Shafter Airport (Minter Field),35.5074,-119.192
US,California,MMH,KMMH,Mammoth Yosemite Airport,37.6241,-118.838
US,California,MOD,KMOD,Modesto City-County Airport (Harry Sham Field),37.6258,-120.954
US,California,MRY,KMRY,Monterey Regional Airport,36.587,-121.843
US,California,MYF,KMYF,Montgomery Field Airport,32.8157,-117.14
US,California,MYV,KMYV,Yuba County Airport,39.0978,-121.57
US,California,NJK,KNJK,NAF El Centro,32.8292,-115.672
US,California,NKX,KNKX,MCAS Miramar,32.8684,-117.143
US,California,NLC,KNLC,NAS Lemoore (Reeves Field),36.333,-119.952
US,California,NLN,,Kneeland Airport,40.7193,-123.928
US,California,NOT,KDVO,Marin County Airport (Gnoss Field),38.1436,-122.556
US,California,NRC,KNRC,NASA Crows Landing Airport,37.408,-121.109
US,California,NRS,KNRS,NOLF Imperial Beach (Ream Field),32.5667,-117.117
US,California,NTD,KNTD,NAS Point Mugu (Naval Base Ventura County),34.1203,-119.121
US,California,NUQ,KNUQ,Moffett Federal Airfield,37.4161,-122.049
US,California,NVN,,Nervino Airport,39.8185,-120.353
US,California,NZY,KNZY,NAS North Island (Halsey Field),32.6992,-117.215
US,California,OAK,KOAK,Oakland International Airport,37.7213,-122.221
US,California,OAR,KOAR,Marina Municipal Airport,36.6819,-121.762
US,California,OCN,KOKB,Oceanside Municipal Airport,33.2173,-117.354
US,California,ODC,,Oakdale Airport,37.7563,-120.8
US,California,ONT,KONT,Ontario International Airport,34.056,-117.601
US,California,OVE,KOVE,Oroville Municipal Airport,39.4878,-121.622
US,California,OXR,KOXR,Oxnard Airport,34.2008,-119.207
US,California,PAO,KPAO,Palo Alto Airport (Santa Clara County Airport),37.4611,-122.115
US,California,PMD,KPMD,Palmdale Regional Airport,34.6294,-118.085
US,California,POC,KPOC,Brackett Field,34.0916,-117.782
US,California,PRB,KPRB,Paso Robles Municipal Airport,35.6729,-120.627
US,California,PSP,KPSP,Palm Springs International Airport,33.8297,-116.507
US,California,PTV,KPTV,Porterville Municipal Airport,36.0296,-119.063
US,California,PVF,KPVF,Placerville Airport,38.7242,-120.753
US,California,PYS,,Paradise Skypark,39.7105,-121.6163
US,California,RAL,KRAL,Riverside Municipal Airport,33.9519,-117.445
US,California,RBF,,Big Bear City Airport,34.2638,-116.856
US,California,RBK,,French Valley Airport,33.5742,-117.128
US,California,RBL,KRBL,Red Bluff Municipal Airport,40.1507,-122.252
US,California,RDD,KRDD,Redding Municipal Airport,40.509,-122.293
US,California,RHV,KRHV,Reid-Hillview Airport of Santa Clara County,37.3329,-121.819
US,California,RIR,KRIR,Flabob Airport,33.9897,-117.411
US,California,RIV,KRIV,March Air Reserve Base,33.8807,-117.259
US,California,RMY,KMPI,Mariposa-Yosemite Airport,37.5109,-120.04
US,California,ROF,,Montague Airport (Yreka Rohrer Field),41.7304,-122.546
US,California,SAC,KSAC,Sacramento Executive Airport,38.5125,-121.493
US,California,SAN,KSAN,San Diego International Airport,32.7336,-117.19
US,California,SAS,KSAS,Salton Sea Airport,33.2414,-115.952
US,California,SBA,KSBA,Santa Barbara Municipal Airport,34.4262,-119.84
US,California,SBD,KSBD,San Bernardino International Airport,34.0954,-117.235
US,California,SBP,KSBP,San Luis Obispo County Regional Airport (McChesney Field),35.2368,-120.642
US,California,SCK,KSCK,Stockton Metropolitan Airport,37.8942,-121.238
US,California,SDM,KSDM,Brown Field Municipal Airport,32.5723,-116.98
US,California,SEE,KSEE,Gillespie Field,32.8262,-116.972
US,California,SFO,KSFO,San Francisco International Airport,37.619,-122.375
US,California,SIY,KSIY,Siskiyou County Airport,41.7781,-122.473
US,California,SJC,KSJC,San Jose International Airport,37.3626,-121.929
US,California,SMF,KSMF,Sacramento International Airport,38.6954,-121.591
US,California,SMO,KSMO,Santa Monica Municipal Airport,34.0158,-118.451
US,California,SMX,KSMX,Santa Maria Public Airport (Capt. G. Allan Hancock Field),34.8989,-120.457
US,California,SNA,KSNA,John Wayne Airport (Orange County Airport),33.6757,-117.868
US,California,SNS,KSNS,Salinas Municipal Airport,36.6628,-121.606
US,California,SPA,KSPA,Spartanburg Downtown Memorial Airport,34.9157,-81.9565
US,California,SQA,KIZA,Santa Ynez Airport,34.6068,-120.076
US,California,SQL,KSQL,San Carlos Airport,37.5119,-122.25
US,California,SRF,,San Rafael Airport (Hamilton Field),38.06,-122.51
US,California,STS,KSTS,Charles M. Schulz-Sonoma County A,38.509,-122.813
US,California,SUM,KSMS,Sumter Airport,33.995,-80.3613
US,California,SUU,KSUU,Travis Air Force Base,38.2627,-121.927
US,California,SVE,KSVE,Susanville Municipal Airport,40.3757,-120.573
US,California,SZN,KSZN,Santa Cruz Island Airport,34.0606,-119.915
US,California,SZP,KSZP,Santa Paula Airport,34.3472,-119.061
US,California,TKF,KTRK,Truckee Tahoe Airport,39.32,-120.14
US,California,TLR,KTLR,Mefford Field Airport,36.1563,-119.326
US,California,TNP,KTNP,Twentynine Palms Airport,34.1316,-115.946
US,California,TOA,KTOA,Zamperini Field,33.8034,-118.34
US,California,TRH,,Trona Airport,35.8125,-117.327
US,California,TRM,KTRM,Jacqueline Cochran Regional Airport,33.6267,-116.16
US,California,TSP,KTSP,Tehachapi Municipal Airport,35.135,-118.439
US,California,TVL,KTVL,Lake Tahoe Airport,38.8939,-119.995
US,California,UDD,KUDD,Bermuda Dunes Airport,33.7484,-116.275
US,California,UKI,KUKI,Ukiah Municipal Airport,39.126,-123.201
US,California,VBG,KVBG,Vandenberg Air Force Base,34.7373,-120.584
US,California,VCV,KVCV,Southern California Logistics Airport,34.5975,-117.383
US,California,VIS,KVIS,Visalia Municipal Airport,36.3187,-119.393
US,California,VNY,KVNY,Van Nuys Airport,34.2098,-118.49
US,California,WHP,KWHP,Whiteman Airport,34.2593,-118.413
US,California,WJF,KWJF,General William J. Fox Airfield,34.7411,-118.219
US,California,WLW,KWLW,Willows-Glenn County Airport,39.5164,-122.218
US,California,WVI,KWVI,Watsonville Municipal Airport,36.9357,-121.79
US,Colorado,AFF,KAFF,United States Air Force Academy Airfield,38.9697,-104.813
US,Colorado,AKO,KAKO,Colorado Plains Regional Airport,40.1756,-103.222
US,Colorado,ALS,KALS,San Luis Valley Regional Airport,37.4349,-105.867
US,Colorado,AMK,,Animas Air Park,37.2032,-107.869
US,Colorado,APA,KAPA,Centennial Airport,39.5701,-104.849
US,Colorado,ASE,KASE,Aspen-Pitkin County Airport (Sardy Field),39.2232,-106.869
US,Colorado,BFK,KBKF,Buckley Air Force Base,39.7017,-104.752
US,Colorado,BJC,KBJC,Rocky Mountain Metropolitan Airport,39.9088,-105.117
US,Colorado,CEZ,KCEZ,Cortez Municipal Airport,37.303,-108.628
US,Colorado,CIG,KCAG,Craig-Moffat Airport,40.4952,-107.522
US,Colorado,CNE,,Fremont County Airport,38.428,-105.106
US,Colorado,COS,KCOS,Colorado Springs Airport,38.8058,-104.701
US,Colorado,CSE,,Buckhorn Ranch Airport,38.8519,-106.928
US,Colorado,DEN,KDEN,Denver International Airport,39.8617,-104.673
US,Colorado,DRO,KDRO,Durango-La Plata County Airport,37.1515,-107.754
US,Colorado,EGE,KEGE,Eagle County Regional Airport,39.6426,-106.918
US,Colorado,FCS,KFCS,Butts Army Airfield (Fort Carson),38.6784,-104.757
US,Colorado,FNL,KFNL,Northern Colorado Regional Airport,40.4518,-105.011
US,Colorado,GJT,KGJT,Grand Junction Regional Airport (Walker Field),39.1224,-108.527
US,Colorado,GUC,KGUC,Gunnison-Crested Butte Regional Airport,38.5339,-106.933
US,Colorado,GWS,KGWS,Glenwood Springs Municipal Airport,39.5083,-107.311
US,Colorado,GXY,KGXY,Greeley-Weld County Airport,40.4374,-104.633
US,Colorado,HDN,KHDN,Yampa Valley Airport,40.4812,-107.218
US,Colorado,LAA,KLAA,Lamar Municipal Airport,38.0697,-102.688
US,Colorado,LIC,KLIC,Limon Municipal Airport,39.2748,-103.666
US,Colorado,LXV,KLXV,Lake County Airport,39.2203,-106.317
US,Colorado,MTJ,KMTJ,Montrose Regional Airport,38.5098,-107.894
US,Colorado,PGO,KPSO,Stevens Field,37.2863,-107.056
US,Colorado,PUB,KPUB,Pueblo Memorial Airport,38.2891,-104.497
US,Colorado,RIL,KRIL,Garfield County Regional Airport,39.5263,-107.727
US,Colorado,RNG,,Rangely Airport,40.0932,-108.763
US,Colorado,SBS,KSBS,Steamboat Springs Airport (Bob Adams Field),40.5163,-106.866
US,Colorado,SLT,KANK,Harriet Alexander Field,38.5383,-106.049
US,Colorado,STK,KSTK,Sterling Municipal Airport,40.6153,-103.265
US,Colorado,TAD,KTAD,Perry Stokes Airport,37.2594,-104.341
US,Colorado,TEX,KTEX,Telluride Regional Airport,37.9538,-107.908
US,Colorado,WBU,KBDU,Boulder Municipal Airport,40.0394,-105.226
US,Colorado,WPO,,North Fork Valley Airport,38.8317,-107.646
US,Connecticut,BDL,KBDL,Bradley International Airport,41.9392,-72.6833
US,Connecticut,BDR,KBDR,Igor I. Sikorsky Memorial Airport,41.1635,-73.1262
US,Connecticut,DXR,KDXR,Danbury Municipal Airport,41.3715,-73.4822
US,Connecticut,GON,KGON,Groton-New London Airport,41.3301,-72.0451
US,Connecticut,HFD,KHFD,Hartford-Brainard Airport,41.7367,-72.6494
US,Connecticut,HVN,KHVN,Tweed New Haven Airport,41.2637,-72.8868
US,Connecticut,OXC,KOXC,Waterbury-Oxford Airport,41.4786,-73.1352
US,Delaware,DOV,KDOV,Dover Air Force Base,39.1295,-75.466
US,Delaware,GED,KGED,Delaware Coastal Airport,38.6892,-75.3589
US,Delaware,ILG,KILG,Wilmington Airport (New Castle Airport),39.6787,-75.6065
US,Florida,AAF,KAAF,Apalachicola Regional Airport,29.7275,-85.0275
US,Florida,APF,KAPF,Naples Municipal Airport,26.1526,-81.7753
US,Florida,AVO,KAVO,Avon Park Executive Airport,27.5912,-81.5278
US,Florida,BCT,KBCT,Boca Raton Airport,26.3785,-80.1077
US,Florida,BOW,KBOW,Bartow Municipal Airport,27.9434,-81.7834
US,Florida,CDK,KCDK,George T. Lewis Airport,29.1342,-83.0505
US,Florida,CEW,KCEW,Bob Sikes Airport,30.7788,-86.5221
US,Florida,CLW,KCLW,Clearwater Air Park,27.9767,-82.7587
US,Florida,COF,KCOF,Patrick Air Force Base,28.2349,-80.6101
US,Florida,COI,KCOI,Merritt Island Airport,28.3416,-80.6855
US,Florida,CRG,KCRG,Jacksonville Executive at Craig Airport,30.3363,-81.5144
US,Florida,CTY,KCTY,Cross City Airport,29.6355,-83.1048
US,Florida,DAB,KDAB,Daytona Beach International Airport,29.1799,-81.0581
US,Florida,DSI,KDTS,Destin Executive Airport,30.4001,-86.4715
US,Florida,ECP,KECP,Northwest Florida Beaches International Airport,30.3571,-85.7954
US,Florida,EGI,KEGI,Duke Field (Eglin Auxiliary Field 3),30.6504,-86.5229
US,Florida,EYW,KEYW,Key West International Airport,24.5561,-81.7596
US,Florida,FLL,KFLL,Fort Lauderdale-Hollywood International Airport,26.0726,-80.1527
US,Florida,FMY,KFMY,Page Field,26.5866,-81.8633
US,Florida,FPR,KFPR,St. Lucie County International Airport,27.4951,-80.3683
US,Florida,FPY,,Perry-Foley Airport,30.0693,-83.5806
US,Florida,FXE,KFXE,Fort Lauderdale Executive Airport,26.1973,-80.1707
US,Florida,GIF,KGIF,Winter Haven's Gilbert Airport,28.0629,-81.7533
US,Florida,GNV,KGNV,Gainesville Regional Airport,29.6901,-82.2718
US,Florida,HST,KHST,Homestead Air Reserve Base,25.4886,-80.3836
US,Florida,HWO,KHWO,North Perry Airport,26.0012,-80.2407
US,Florida,IMM,KIMM,Immokalee Regional Airport,26.4332,-81.401
US,Florida,ISM,KISM,Kissimmee Gateway Airport,28.2898,-81.4371
US,Florida,JAX,KJAX,Jacksonville International Airport,30.4941,-81.6879
US,Florida,KYO,,Tampa North Aero Park,28.2213,-82.3745
US,Florida,LAL,KLAL,Lakeland Linder International Airport,27.9889,-82.0186
US,Florida,LCQ,KLCQ,Lake City Gateway Airport,30.182,-82.5769
US,Florida,LEE,KLEE,Leesburg International Airport,28.8231,-81.8087
US,Florida,LNA,KLNA,Palm Beach County Park Airport,26.593,-80.0851
US,Florida,MCF,KMCF,MacDill Air Force Base,27.8493,-82.5212
US,Florida,MCO,KMCO,Orlando International Airport,28.4294,-81.309
US,Florida,MIA,KMIA,Miami International Airport,25.7932,-80.2906
US,Florida,MLB,KMLB,Orlando Melbourne International Airport,28.1028,-80.6453
US,Florida,MPB,,Miami Seaplane Base,25.7783,-80.1703
US,Florida,MRK,KMKY,Marco Island Airport,25.995,-81.6725
US,Florida,MTH,KMTH,Florida Keys Marathon Airport,24.7261,-81.0514
US,Florida,NEN,KNEN,NOLF Whitehouse,30.3539,-81.8719
US,Florida,NIP,KNIP,NAS Jacksonville (Towers Field),30.2358,-81.6806
US,Florida,NPA,KNPA,NAS Pensacola (Forrest Sherman Field),30.3527,-87.3186
US,Florida,NQX,KNQX,NAS Key West (Boca Chica Field),24.5758,-81.6889
US,Florida,NRB,KNRB,NS Mayport (Admiral David L. McDonald Field),30.3911,-81.4247
US,Florida,NSE,KNSE,NAS Whiting Field - North,30.7242,-87.0219
US,Florida,NUN,KNUN,NOLF Saufley Field,30.4694,-87.3381
US,Florida,OBE,KOBE,Okeechobee County Airport,27.2628,-80.8498
US,Florida,OCA,,Ocean Reef Club Airport,25.3254,-80.2748
US,Florida,OCF,KOCF,Ocala International Airport (Jim Taylor Field),29.1726,-82.2242
US,Florida,OPF,KOPF,Miami-Opa Locka Executive Airport,25.907,-80.2784
US,Florida,ORL,KORL,Orlando Executive Airport,28.5455,-81.3329
US,Florida,PAM,KPAM,Tyndall Air Force Base,30.0696,-85.5754
US,Florida,PBI,KPBI,Palm Beach International Airport,26.6832,-80.0956
US,Florida,PGD,KPGD,Punta Gorda Airport,26.9202,-81.9905
US,Florida,PHK,KPHK,Palm Beach County Glades Airport,26.785,-80.6934
US,Florida,PIE,KPIE,St. Pete-Clearwater International Airport,27.9102,-82.6874
US,Florida,PNS,KPNS,Pensacola International Airport,30.4734,-87.1866
US,Florida,PPM,KPMP,Pompano Beach Airpark,26.2471,-80.1111
US,Florida,RSW,KRSW,Southwest Florida International Airport,26.5362,-81.7552
US,Florida,SEF,KSEF,Sebring Regional Airport,27.4564,-81.3424
US,Florida,SFB,KSFB,Orlando Sanford International Airport,28.7776,-81.2375
US,Florida,SPG,KSPG,Albert Whitted Airport,27.7651,-82.627
US,Florida,SRQ,KSRQ,Sarasota-Bradenton International Airport,27.3954,-82.5544
US,Florida,SUA,KSUA,Witham Field,27.1817,-80.2211
US,Florida,TIX,KTIX,Space Coast Regional Airport,28.5148,-80.7992
US,Florida,TLH,KTLH,Tallahassee International Airport,30.3965,-84.3503
US,Florida,TMB,KTMB,Miami Executive Airport,25.6479,-80.4328
US,Florida,TNT,KTNT,Dade-Collier Training and Transition Airport,25.8618,-80.897
US,Florida,TPA,KTPA,Tampa International Airport,27.9755,-82.5332
US,Florida,TPF,KTPF,Peter O. Knight Airport,27.9156,-82.4493
US,Florida,UST,KSGJ,Northeast Florida Regional Airport,29.9592,-81.3398
US,Florida,VNC,KVNC,Venice Municipal Airport,27.0716,-82.4403
US,Florida,VPS,KVPS,Destin-Fort Walton Beach Airport / Eglin Air Force Base,30.4832,-86.5254
US,Florida,VQQ,KVQQ,Cecil Airport,30.2187,-81.8767
US,Florida,VRB,KVRB,Vero Beach Regional Airport,27.6556,-80.4179
US,Florida,ZPH,KZPH,Zephyrhills Municipal Airport,28.2282,-82.1559
US,Georgia,ABY,KABY,Southwest Georgia Regional Airport,31.5355,-84.1945
US,Georgia,AGS,KAGS,Augusta Regional Airport at Bush Field,33.3699,-81.9645
US,Georgia,AHN,KAHN,Athens Ben Epps Airport,33.9486,-83.3263
US,Georgia,ATL,KATL,Hartsfield-Jackson Atlanta International Airport,33.6367,-84.4281
US,Georgia,AYS,KAYS,Waycross-Ware County Airport,31.2491,-82.3955
US,Georgia,BGE,KBGE,Decatur County Industrial Air Park,30.9715,-84.6374
US,Georgia,BQK,KBQK,Brunswick Golden Isles Airport,31.2588,-81.4665
US,Georgia,CSG,KCSG,Columbus Airport,32.5163,-84.9389
US,Georgia,DBN,KDBN,W. H. 'Bud' Barron Airport,32.5644,-82.9853
US,Georgia,DNL,KDNL,Daniel Field,33.4665,-82.0394
US,Georgia,DNN,KDNN,Dalton Municipal Airport,34.7229,-84.8702
US,Georgia,FTY,KFTY,Fulton County Airport (Charlie Brown Field),33.7791,-84.5214
US,Georgia,GVL,KGVL,Lee Gilmer Memorial Airport,34.2726,-83.8302
US,Georgia,LGC,KLGC,LaGrange Callaway Airport,33.0089,-85.0726
US,Georgia,LIY,KLHW,MidCoast Regional Airport at Wright Army Airfield,31.8891,-81.5623
US,Georgia,LSF,KLSF,Lawson Army Airfield,32.3373,-84.9913
US,Georgia,LZU,KLZU,Gwinnett County Airport (Briscoe Field),33.9781,-83.9624
US,Georgia,MAC,KMAC,Macon Downtown Airport,32.8221,-83.562
US,Georgia,MCN,KMCN,Middle Georgia Regional Airport,32.6928,-83.6492
US,Georgia,MGE,KMGE,Dobbins Air Reserve Base,33.9154,-84.5163
US,Georgia,MGR,KMGR,Moultrie Municipal Airport,31.0849,-83.8033
US,Georgia,MLJ,KMLJ,Baldwin County Airport,33.1542,-83.2407
US,Georgia,MQW,KMQW,Telfair-Wheeler Airport,32.0946,-82.8822
US,Georgia,MUL,KMUL,Spence Airport,31.1378,-83.7042
US,Georgia,PDK,KPDK,DeKalb-Peachtree Airport,33.8756,-84.302
US,Georgia,PIM,KPIM,Harris County Airport,32.8407,-84.8824
US,Georgia,RMG,KRMG,Richard B. Russell Airport,34.3506,-85.158
US,Georgia,SAV,KSAV,Savannah/Hilton Head International Airport,32.1276,-81.2021
US,Georgia,SSI,KSSI,Malcolm McKinnon Airport,31.1518,-81.3913
US,Georgia,SVN,KSVN,Hunter Army Airfield,32.01,-81.1457
US,Georgia,SYV,KSYV,Sylvester Airport,31.5585,-83.8957
US,Georgia,TBR,KTBR,Statesboro-Bulloch County Airport,32.4827,-81.7369
US,Georgia,TMA,KTMA,Henry Tift Myers Airport,31.429,-83.4885
US,Georgia,TOC,KTOC,Toccoa Airport (R.G. LeTourneau Field),34.5938,-83.2958
US,Georgia,TVI,KTVI,Thomasville Regional Airport,30.9016,-83.8813
US,Georgia,VAD,KVAD,Moody Air Force Base,30.9678,-83.193
US,Georgia,VDI,KVDI,Vidalia Regional Airport,32.1927,-82.3712
US,Georgia,VLD,KVLD,Valdosta Regional Airport,30.7825,-83.2767
US,Georgia,WDR,KWDR,Barrow County Airport,33.9829,-83.6674
US,Georgia,WRB,KWRB,Robins Air Force Base,32.6401,-83.5919
US,Idaho,BOI,KBOI,Boise Air Terminal (Gowen Field),43.5644,-116.223
US,Idaho,BYI,KBYI,Burley Municipal Airport,42.5426,-113.772
US,Idaho,CHL,KLLJ,Challis Airport,44.523,-114.218
US,Idaho,COE,KCOE,Coeur d'Alene Airport,47.7743,-116.82
US,Idaho,DBS,,Dubois Municipal Airport,44.1666,-112.226
US,Idaho,GNG,KGNG,Gooding Municipal Airport,42.9172,-114.765
US,Idaho,ICS,,Cascade Airport,44.4938,-116.016
US,Idaho,IDA,KIDA,Idaho Falls Regional Airport,43.5136,-112.071
US,Idaho,IDH,KGIC,Idaho County Airport,45.9426,-116.123
US,Idaho,LWS,KLWS,Lewiston-Nez Perce County Airport,46.3745,-117.015
US,Idaho,MLD,KMLD,Malad City Airport,42.1666,-112.297
US,Idaho,MUO,KMUO,Mountain Home Air Force Base,43.0436,-115.872
US,Idaho,MYL,KMYL,McCall Municipal Airport,44.8897,-116.101
US,Idaho,PIH,KPIH,Pocatello Regional Airport,42.9098,-112.596
US,Idaho,RXE,KRXE,Rexburg-Madison County Airport,43.8339,-111.805
US,Idaho,SMN,KSMN,Lemhi County Airport,45.1238,-113.881
US,Idaho,SUN,KSUN,Friedman Memorial Airport,43.5044,-114.296
US,Idaho,TWF,KTWF,Magic Valley Regional Airport (Joslin Field),42.4818,-114.488
US,Illinois,ALN,KALN,St. Louis Regional Airport,38.8903,-90.046
US,Illinois,AUZ,KARR,Aurora Municipal Airport,41.7719,-88.4757
US,Illinois,BDF,,Rinkenberger RLA Airport,41.2309,-89.6157
US,Illinois,BLV,KBLV,MidAmerica St. Louis Airport / Scott Air Force Base,38.5452,-89.8352
US,Illinois,BMI,KBMI,Central Illinois Regional Airport,40.4771,-88.9159
US,Illinois,CIR,KCIR,Cairo Regional Airport,37.0645,-89.2196
US,Illinois,CMI,KCMI,University of Illinois Willard Airport,40.0392,-88.2781
US,Illinois,CPS,KCPS,St. Louis Downtown Airport,38.5707,-90.1562
US,Illinois,DEC,KDEC,Decatur Airport,39.8346,-88.8657
US,Illinois,DNV,KDNV,Vermilion Regional Airport,40.1992,-87.5959
US,Illinois,DPA,KDPA,DuPage Airport,41.9078,-88.2486
US,Illinois,DVN,KDVN,Davenport Municipal Airport,41.6103,-90.5883
US,Illinois,ENL,KENL,Centralia Municipal Airport,38.5151,-89.0911
US,Illinois,EOK,KEOK,Keokuk Municipal Airport,40.4599,-91.4285
US,Illinois,FEP,KFEP,Albertus Airport,42.2462,-89.582
US,Illinois,GBG,KGBG,Galesburg Municipal Airport,40.938,-90.4311
US,Illinois,GRE,KGRE,Greenville Airport,38.8362,-89.3784
US,Illinois,HSB,KHSB,Harrisburg-Raleigh Airport,37.8113,-88.5503
US,Illinois,IJX,KIJX,Jacksonville Municipal Airport,39.7707,-90.238
US,Illinois,IKK,KIKK,Greater Kankakee Airport,41.0714,-87.8463
US,Illinois,JOT,KJOT,Joliet Regional Airport,41.5178,-88.1755
US,Illinois,LOT,KLOT,Lewis University Airport,41.6073,-88.0962
US,Illinois,LWV,KLWV,Lawrenceville-Vincennes International Airport,38.7643,-87.6055
US,Illinois,MDH,KMDH,Southern Illinois Airport,37.7781,-89.252
US,Illinois,MDW,KMDW,Chicago Midway International Airport,41.7861,-87.7525
US,Illinois,MLI,KMLI,Quad City International Airport,41.4485,-90.5075
US,Illinois,MQB,KMQB,Macomb Municipal Airport,40.5201,-90.6524
US,Illinois,MTO,KMTO,Coles County Memorial Airport,39.4779,-88.2792
US,Illinois,MVN,KMVN,Mount Vernon Airport,38.3219,-88.8535
US,Illinois,MWA,KMWA,Williamson County Regional Airport,37.755,-89.0111
US,Illinois,OLY,KOLY,Olney-Noble Airport,38.7207,-88.1749
US,Illinois,ORD,KORD,Chicago O'Hare International Airport,41.9786,-87.9047
US,Illinois,PIA,KPIA,General Wayne A. Downing Peoria International Airport,40.6642,-89.6933
US,Illinois,RFD,KRFD,Chicago Rockford International Airport,42.1953,-89.0972
US,Illinois,SAR,KSAR,Sparta Community Airport (Hunter Field),38.1489,-89.6987
US,Illinois,SLO,KSLO,Salem-Leckrone Airport,38.6429,-88.9642
US,Illinois,SPI,KSPI,Abraham Lincoln Capital Airport,39.8441,-89.6779
US,Illinois,SQI,KSQI,Whiteside County Airport (Jos. H. Bittorf Field),41.7428,-89.6763
US,Illinois,UGN,KUGN,Waukegan National Airport,42.4222,-87.8679
US,Illinois,UIN,KUIN,Quincy Regional Airport (Baldwin Field),39.9427,-91.1946
US,Illinois,VLA,KVLA,Vandalia Municipal Airport,38.9915,-89.1662
US,Illinois,VYS,KVYS,Illinois Valley Regional Airport (Walter A. Duncan Field),41.3519,-89.1531
US,Indiana,AID,KAID,Anderson Municipal Airport (Darlington Field),40.1086,-85.613
US,Indiana,ANQ,KANQ,Tri-State Steuben County Airport,41.6397,-85.0835
US,Indiana,BFR,KBFR,Virgil I. Grissom Municipal Airport,38.84,-86.4454
US,Indiana,BMG,KBMG,Monroe County Airport,39.146,-86.6167
US,Indiana,CEV,KCEV,Mettel Field,39.6985,-85.1297
US,Indiana,CLU,KBAK,Columbus Municipal Airport,39.2619,-85.8963
US,Indiana,EKI,KEKM,Elkhart Municipal Airport,41.7194,-86.0032
US,Indiana,EVV,KEVV,Evansville Regional Airport,38.037,-87.5324
US,Indiana,FRH,KFRH,French Lick Municipal Airport,38.5062,-86.6369
US,Indiana,FWA,KFWA,Fort Wayne International Airport,40.9785,-85.1951
US,Indiana,GBI,VOGB,Kalaburagi Airport,26.6319,-78.3592
US,Indiana,GFD,KGFD,Pope Field,39.7903,-85.7361
US,Indiana,GSH,KGSH,Goshen Municipal Airport,41.5264,-85.7929
US,Indiana,GUS,KGUS,Grissom Air Reserve Base,40.6481,-86.1521
US,Indiana,HLB,KHLB,Hillenbrand Industries Airport,39.3445,-85.2583
US,Indiana,HNB,KHNB,Huntingburg Airport,38.249,-86.9537
US,Indiana,IND,KIND,Indianapolis International Airport,39.7173,-86.2944
US,Indiana,KKT,,Kentland Municipal Airport,40.7587,-87.4282
US,Indiana,LAF,KLAF,Purdue University Airport,40.4123,-86.9369
US,Indiana,LPO,KPPO,La Porte Municipal Airport,41.5725,-86.7345
US,Indiana,MDN,KIMS,Madison Municipal Airport,38.7589,-85.4655
US,Indiana,MGC,KMGC,Michigan City Municipal Airport,41.7033,-86.8212
US,Indiana,MIE,KMIE,Delaware County Regional Airport,40.2423,-85.3959
US,Indiana,MZZ,KMZZ,Marion Municipal Airport,40.4899,-85.6797
US,Indiana,OKK,KOKK,Kokomo Municipal Airport,40.5282,-86.059
US,Indiana,OTN,,Ed-Air Airport,38.8514,-87.4997
US,Indiana,PLY,,Plymouth Municipal Airport,41.3651,-86.3005
US,Indiana,RCR,KRCR,Fulton County Airport,41.0656,-86.1817
US,Indiana,RID,KRID,Richmond Municipal Airport,39.7572,-84.8428
US,Indiana,RNZ,KRZL,Jasper County Airport,40.9479,-87.1826
US,Indiana,SBN,KSBN,South Bend International Airport,41.7087,-86.3173
US,Indiana,SER,KSER,Freeman Municipal Airport,38.9236,-85.9074
US,Indiana,SIV,KSIV,Sullivan County Airport,39.1147,-87.4483
US,Indiana,SMD,KSMD,Smith Field,41.1434,-85.1528
US,Indiana,VPZ,KVPZ,Porter County Regional Airport,41.454,-87.0071
US,Iowa,AIO,KAIO,Atlantic Municipal Airport,41.4073,-95.0469
US,Iowa,ALO,KALO,Waterloo Regional Airport,42.5571,-92.4003
US,Iowa,AMW,KAMW,Ames Municipal Airport,41.992,-93.6218
US,Iowa,AXG,KAXA,Algona Municipal Airport,43.0779,-94.272
US,Iowa,BNW,KBNW,Boone Municipal Airport,42.0496,-93.8476
US,Iowa,BRL,KBRL,Southeast Iowa Regional Airport,40.7832,-91.1255
US,Iowa,CBF,KCBF,Council Bluffs Municipal Airport,41.2592,-95.7606
US,Iowa,CCY,KCCY,Northeast Iowa Regional Airport,43.0726,-92.6108
US,Iowa,CID,KCID,The Eastern Iowa Airport,41.8847,-91.7108
US,Iowa,CIN,KCIN,Arthur N. Neu Airport,42.0462,-94.789
US,Iowa,CSQ,KCSQ,Creston Municipal Airport,41.0214,-94.3633
US,Iowa,CWI,KCWI,Clinton Municipal Airport,41.8311,-90.3291
US,Iowa,DBQ,KDBQ,Dubuque Regional Airport,42.402,-90.7095
US,Iowa,DEH,KDEH,Decorah Municipal Airport,43.2755,-91.7394
US,Iowa,DNS,KDNS,Denison Municipal Airport,41.9864,-95.3807
US,Iowa,DSM,KDSM,Des Moines International Airport,41.534,-93.6631
US,Iowa,EBS,KEBS,Webster City Municipal Airport,42.4366,-93.8689
US,Iowa,EFW,KEFW,Jefferson Municipal Airport,42.0102,-94.3426
US,Iowa,EST,KEST,Estherville Municipal Airport,43.4074,-94.7464
US,Iowa,FFL,KFFL,Fairfield Municipal Airport,41.0533,-91.9789
US,Iowa,FMS,KFSW,Fort Madison Municipal Airport,40.6593,-91.3268
US,Iowa,FOD,KFOD,Fort Dodge Regional Airport,42.5515,-94.1926
US,Iowa,FXY,KFXY,Forest City Municipal Airport,43.2347,-93.6241
US,Iowa,HPT,KHPT,Hampton Municipal Airport,42.7237,-93.2263
US,Iowa,HUD,,Humboldt Municipal Airport,42.7361,-94.2452
US,Iowa,ICL,KICL,Schenck Field,40.7218,-95.0264
US,Iowa,IDG,KIDG,Ida Grove Municipal Airport,42.3325,-95.445
US,Iowa,IFA,KIFA,Iowa Falls Municipal Airport,42.4708,-93.27
US,Iowa,IOW,KIOW,Iowa City Municipal Airport,41.6392,-91.5465
US,Iowa,LRJ,KLRJ,Le Mars Municipal Airport,42.778,-96.1937
US,Iowa,MCW,KMCW,Mason City Municipal Airport,43.1578,-93.3313
US,Iowa,MIW,KMIW,Marshalltown Municipal Airport,42.1128,-92.9178
US,Iowa,MPZ,KMPZ,Mount Pleasant Municipal Airport,40.9466,-91.5111
US,Iowa,MUT,KMUT,Muscatine Municipal Airport,41.3678,-91.1482
US,Iowa,MXO,KMXO,Monticello Regional Airport,42.2263,-91.1635
US,Iowa,OMA,KOMA,Eppley Airfield,41.3032,-95.8941
US,Iowa,OOA,KOOA,Oskaloosa Municipal Airport,41.0048,-93.3096
US,Iowa,OTM,KOTM,Ottumwa Regional Airport,41.1066,-92.4479
US,Iowa,POH,KPOH,Pocahontas Municipal Airport,36.2456,-90.9553
US,Iowa,PRO,KPRO,Perry Municipal Airport,41.828,-94.1599
US,Iowa,RTL,,Spirit Lake Municipal Airport,43.3875,-95.1392
US,Iowa,SLB,KSLB,Storm Lake Municipal Airport,42.5973,-95.2407
US,Iowa,SPW,KSPW,Spencer Municipal Airport,43.1655,-95.2028
US,Iowa,SUX,KSUX,Sioux Gateway Airport (Colonel Bud Day Field),42.4026,-96.3844
US,Iowa,TNU,KTNU,Newton Municipal Airport,41.6744,-93.0217
US,Iowa,UKN,,Waukon Municipal Airport,43.2805,-91.4695
US,Kansas,ANY,KANY,Anthony Municipal Airport,37.1585,-98.0796
US,Kansas,BEC,KBEC,Beech Factory Airport,37.6945,-97.215
US,Kansas,CBK,KCBK,Colby Municipal Airport (Shalz Field),39.4275,-101.047
US,Kansas,CEA,KCEA,Cessna Aircraft Field,37.6486,-97.2506
US,Kansas,CFV,KCFV,Coffeyville Municipal Airport,37.094,-95.5719
US,Kansas,CNK,KCNK,Blosser Municipal Airport,39.5493,-97.6523
US,Kansas,CNU,KCNU,Chanute Martin Johnson Airport,37.6688,-95.4851
US,Kansas,DDC,KDDC,Dodge City Regional Airport,37.7634,-99.9656
US,Kansas,EDK,KEQA,Captain Jack Thomas/El Dorado Airport,37.7741,-96.8176
US,Kansas,EMP,KEMP,Emporia Municipal Airport,38.3321,-96.1912
US,Kansas,EWK,KEWK,Newton City/County Airport,38.0582,-97.2745
US,Kansas,FLV,KFLV,Sherman Army Airfield,39.3683,-94.9147
US,Kansas,FOE,KFOE,Topeka Regional Airport,38.9509,-95.6636
US,Kansas,FRI,KFRI,Marshall Army Airfield,39.0553,-96.7645
US,Kansas,FSK,KFSK,Fort Scott Municipal Airport,37.7984,-94.7694
US,Kansas,GBD,KGBD,Great Bend Municipal Airport,38.3443,-98.8592
US,Kansas,GCK,KGCK,Garden City Regional Airport,37.9275,-100.724
US,Kansas,GLD,KGLD,Goodland Municipal Airport (Renner Field),39.3706,-101.699
US,Kansas,HLC,KHLC,Hill City Municipal Airport,39.3788,-99.8315
US,Kansas,HUT,KHUT,Hutchinson Municipal Airport,38.0655,-97.8606
US,Kansas,HYS,KHYS,Hays Regional Airport,38.8422,-99.2732
US,Kansas,IAB,KIAB,McConnell Air Force Base,37.6219,-97.2682
US,Kansas,ICT,KICT,Wichita Dwight D. Eisenhower National Airport,37.6499,-97.4331
US,Kansas,IDP,KIDP,Independence Municipal Airport,37.1584,-95.7784
US,Kansas,JCI,KIXD,New Century AirCenter,38.8309,-94.8903
US,Kansas,LBL,KLBL,Liberal Mid-America Regional Airport,37.0442,-100.96
US,Kansas,LWC,KLWC,Lawrence Regional Airport,39.0112,-95.2166
US,Kansas,LYO,KLYO,Lyons-Rice County Municipal Airport,38.3428,-98.2269
US,Kansas,MHK,KMHK,Manhattan Regional Airport,39.141,-96.6708
US,Kansas,MPR,KMPR,McPherson Airport,38.3524,-97.6913
US,Kansas,OJC,KOJC,Johnson County Executive Airport,38.8476,-94.7376
US,Kansas,PPF,KPPF,Tri-City Airport,37.3299,-95.5062
US,Kansas,PTS,KPTS,Atkinson Municipal Airport,37.4478,-94.7311
US,Kansas,PTT,KPTT,Pratt Regional Airport,37.7016,-98.7469
US,Kansas,RSL,KRSL,Russell Municipal Airport,38.8721,-98.8118
US,Kansas,SLN,KSLN,Salina Regional Airport,38.791,-97.6522
US,Kansas,TOP,KTOP,Philip Billard Municipal Airport,39.0687,-95.6225
US,Kansas,WLD,KWLD,Strother Field,37.1686,-97.0376
US,Kentucky,BRY,KBRY,Samuels Field,37.8143,-85.4996
US,Kentucky,BWG,KBWG,Bowling Green-Warren County Regional Airport,36.9645,-86.4197
US,Kentucky,CEY,KCEY,Murray-Calloway County Airport,36.6646,-88.3728
US,Kentucky,CVG,KCVG,Cincinnati/Northern Kentucky International Airport,39.0488,-84.6678
US,Kentucky,EKX,KEKX,Elizabethtown Regional Airport (Addington Field),37.686,-85.925
US,Kentucky,FFT,KFFT,Capital City Airport,38.1825,-84.9047
US,Kentucky,FTK,KFTK,Godman Army Airfield,37.9071,-85.9721
US,Kentucky,GLW,KGLW,Glasgow Municipal Airport,37.0318,-85.9537
US,Kentucky,HOP,KHOP,Campbell Army Airfield,36.6686,-87.4962
US,Kentucky,LEX,KLEX,Blue Grass Airport,38.0365,-84.6059
US,Kentucky,LOU,KLOU,Bowman Field,38.228,-85.6637
US,Kentucky,LOZ,KLOZ,London-Corbin Airport (Magee Field),37.0822,-84.0849
US,Kentucky,OWB,KOWB,Owensboro-Daviess County Airport,37.7401,-87.1668
US,Kentucky,PAH,KPAH,Barkley Regional Airport,37.0608,-88.7738
US,Kentucky,PVL,KPBX,Pike County Airport,37.5618,-82.5664
US,Kentucky,SDF,KSDF,Louisville International Airport (Standiford Field),38.1744,-85.736
US,Kentucky,SME,KSME,Lake Cumberland Regional Airport,37.0534,-84.6159
US,Louisiana,AEX,KAEX,Alexandria International Airport,31.3274,-92.5498
US,Louisiana,ARA,KARA,Acadiana Regional Airport,30.0378,-91.8839
US,Louisiana,BAD,KBAD,Barksdale Air Force Base,32.5018,-93.6627
US,Louisiana,BCS,,Southern Seaplane Airport,29.8661,-90.0222
US,Louisiana,BTR,KBTR,Baton Rouge Metropolitan Airport (Ryan Field),30.5332,-91.1496
US,Louisiana,BXA,KBXA,George R. Carr Memorial Air Field,30.8137,-89.865
US,Louisiana,CWF,KCWF,Chennault International Airport,30.2106,-93.1432
US,Louisiana,DRI,KDRI,Beauregard Regional Airport,30.8317,-93.3399
US,Louisiana,DTN,KDTN,Shreveport Downtown Airport,32.5402,-93.745
US,Louisiana,ESF,KESF,Esler Airfield (Esler Regional Airport),31.3949,-92.2958
US,Louisiana,HUM,KHUM,Houma-Terrebonne Airport,29.5665,-90.6604
US,Louisiana,LCH,KLCH,Lake Charles Regional Airport,30.1261,-93.2233
US,Louisiana,LFT,KLFT,Lafayette Regional Airport,30.2053,-91.9876
US,Louisiana,MLU,KMLU,Monroe Regional Airport,32.5109,-92.0377
US,Louisiana,MSY,KMSY,Louis Armstrong New Orleans International Airport,29.9934,-90.258
US,Louisiana,NBG,KNBG,NAS JRB New Orleans (Alvin Callender Field),29.8253,-90.035
US,Louisiana,NEW,KNEW,Lakefront Airport,30.0424,-90.0283
US,Louisiana,OPL,KOPL,St. Landry Parish Airport (Ahart Field),30.5584,-92.0994
US,Louisiana,POE,KPOE,Polk Army Airfield,31.0448,-93.1917
US,Louisiana,PTN,KPTN,Harry P. Williams Memorial Airport,29.7095,-91.339
US,Louisiana,RSN,KRSN,Ruston Regional Airport,32.5144,-92.5917
US,Louisiana,SHV,KSHV,Shreveport Regional Airport,32.4466,-93.8256
US,Louisiana,UCE,,Eunice Airport,30.4663,-92.4238
US,Maine,AUG,KAUG,Augusta State Airport,44.3206,-69.7973
US,Maine,BGR,KBGR,Bangor International Airport,44.8074,-68.8281
US,Maine,BHB,KBHB,Hancock County-Bar Harbor Airport,44.45,-68.3615
US,Maine,CAR,KCAR,Caribou Municipal Airport,46.8715,-68.0179
US,Maine,FRY,KIZG,Eastern Slopes Regional Airport,43.9911,-70.9479
US,Maine,HUL,KHUL,Houlton International Airport,46.1231,-67.7921
US,Maine,ISS,KIWI,Wiscasset Airport,43.9614,-69.7126
US,Maine,LEW,KLEW,Auburn/Lewiston Municipal Airport,44.0485,-70.2835
US,Maine,LIZ,,Loring International Airport,46.9504,-67.8859
US,Maine,MLT,KMLT,Millinocket Municipal Airport,45.6478,-68.6856
US,Maine,NHZ,KBXM,Brunswick Executive Airport,43.8922,-69.9386
US,Maine,OLD,KOLD,Old Town Municipal Airport and Seaplane Base (Dewitt Field),44.9528,-68.6743
US,Maine,OWK,KOWK,Central Maine Airport of Norridgewock,44.7155,-69.8665
US,Maine,PNN,KPNN,Princeton Municipal Airport,45.2007,-67.5644
US,Maine,PQI,KPQI,Northern Maine Regional Airport at Presque Isle,46.689,-68.0448
US,Maine,PWM,KPWM,Portland International Jetport,43.6462,-70.3093
US,Maine,RKD,KRKD,Knox County Regional Airport,44.0601,-69.0992
US,Maine,SFM,KSFM,Sanford Seacoast Regional Airport,43.3939,-70.708
US,Maine,WFK,KFVE,Northern Aroostook Regional Airport,47.2855,-68.3128
US,Maine,WVL,KWVL,Waterville Robert LaFleur Airport,44.5332,-69.6755
US,Maryland,ADW,KADW,Andrews Field (Andrews Air Force Base),38.8108,-76.867
US,Maryland,ANP,KANP,Lee Airport,38.9429,-76.5684
US,Maryland,APG,KAPG,Phillips Army Airfield,39.4662,-76.1688
US,Maryland,BWI,KBWI,Baltimore/Washington International Airport,39.1753,-76.6683
US,Maryland,CBE,KCBE,Greater Cumberland Regional Airport,39.6154,-78.7609
US,Maryland,CGE,KCGE,Cambridge-Dorchester Airport,38.5393,-76.0304
US,Maryland,CGS,KCGS,College Park Airport,38.9806,-76.9223
US,Maryland,ESN,KESN,Easton Airport (Newnam Field),38.8042,-76.069
US,Maryland,FDK,KFDK,Frederick Municipal Airport,39.4176,-77.3743
US,Maryland,FME,KFME,Tipton Airport,39.0854,-76.7594
US,Maryland,GAI,KGAI,Montgomery County Airpark,39.1683,-77.166
US,Maryland,HGR,KHGR,Hagerstown Regional Airport (Richard A. Henson Field),39.7079,-77.7295
US,Maryland,LTW,,St. Mary's County Regional Airport (Captain Walter Francis Duke Regional Airport),38.3154,-76.5501
US,Maryland,MTN,KMTN,Martin State Airport,39.3257,-76.4138
US,Maryland,NHK,KNHK,NAS Patuxent River (Trapnell Field),38.286,-76.4118
US,Maryland,OCE,KOXB,Ocean City Municipal Airport,38.3104,-75.124
US,Maryland,SBY,KSBY,Salisbury-Ocean City-Wicomico Regional Airport,38.3405,-75.5103
US,Massachusetts,ACK,KACK,Nantucket Memorial Airport,41.2531,-70.0602
US,Massachusetts,ARE,TJAB,Antonio (Nery) Juarbe Pol Airport,18.45,-66.6753
US,Massachusetts,BAF,KBAF,Westfield-Barnes Regional Airport,42.1578,-72.7156
US,Massachusetts,BED,KBED,Laurence G. Hanscom Field,42.47,-71.289
US,Massachusetts,BOS,KBOS,Logan International Airport,42.3643,-71.0052
US,Massachusetts,BQN,TJBQ,Rafael Hernandez Airport,18.4949,-67.1294
US,Massachusetts,BVY,KBVY,Beverly Municipal Airport,42.5842,-70.9165
US,Massachusetts,CPX,TJCP,Benjamin Rivera Noriega Airport,18.3133,-65.3043
US,Massachusetts,EWB,KEWB,New Bedford Regional Airport,41.6761,-70.9569
US,Massachusetts,FAJ,TJFA,Diego Jimenez Torres Airport,18.3089,-65.6619
US,Massachusetts,FMH,KFMH,Otis Air National Guard Base,41.6584,-70.5214
US,Massachusetts,GBR,KGBR,Walter J. Koladza Airport,42.1842,-73.4032
US,Massachusetts,GDM,KGDM,Gardner Municipal Airport,42.55,-72.0161
US,Massachusetts,HUC,,Humacao Airport,18.1381,-65.8013
US,Massachusetts,HYA,KHYA,Barnstable Municipal Airport (Boardman/Polando Field),41.6693,-70.2804
US,Massachusetts,LWM,KLWM,Lawrence Municipal Airport,42.7172,-71.1234
US,Massachusetts,MAZ,TJMZ,Eugenio Maria de Hostos Airport,18.2557,-67.1485
US,Massachusetts,MMN,,Minute Man Air Field,42.4618,-71.5184
US,Massachusetts,MVY,KMVY,Martha's Vineyard Airport,41.3931,-70.6143
US,Massachusetts,MXG,,Marlboro Airport,42.3432,-71.509
US,Massachusetts,NRR,TJRV,Jose Aponte de la Torre Airport,18.2453,-65.6434
US,Massachusetts,ORH,KORH,Worcester Regional Airport,42.2673,-71.8757
US,Massachusetts,OWD,KOWD,Norwood Memorial Airport,42.1905,-71.1729
US,Massachusetts,PMX,,Metropolitan Airport,42.2233,-72.3114
US,Massachusetts,PSF,KPSF,Pittsfield Municipal Airport,42.4268,-73.2929
US,Massachusetts,PVC,KPVC,Provincetown Municipal Airport,42.0719,-70.2214
US,Massachusetts,PYM,KPYM,Plymouth Municipal Airport,41.909,-70.7288
US,Massachusetts,UWA,,Ware Airport,42.282,-72.2148
US,Massachusetts,VQS,TJVQ,Antonio Rivera Rodriguez Airport,18.1348,-65.4936
US,Michigan,ACB,KACB,Antrim County Airport,44.9886,-85.1984
US,Michigan,ADG,KADG,Lenawee County Airport,41.8677,-84.0773
US,Michigan,AMN,KAMN,Gratiot Community Airport,43.3221,-84.688
US,Michigan,APN,KAPN,Alpena County Regional Airport,45.0781,-83.5603
US,Michigan,ARB,KARB,Ann Arbor Municipal Airport,42.223,-83.7456
US,Michigan,AZO,KAZO,Kalamazoo/Battle Creek International Airport,42.2349,-85.5521
US,Michigan,BEH,KBEH,Southwest Michigan Regional Airport,42.1286,-86.4285
US,Michigan,BTL,KBTL,W. K. Kellogg Airport,42.3073,-85.2515
US,Michigan,CAD,KCAD,Wexford County Airport,44.2753,-85.4189
US,Michigan,CIU,KCIU,Chippewa County International Airport,46.2508,-84.4724
US,Michigan,CMX,KCMX,Houghton County Memorial Airport,47.1684,-88.4891
US,Michigan,DRE,KDRM,Drummond Island Airport,46.0093,-83.7439
US,Michigan,DTW,KDTW,Detroit Metro Wayne County Airport,42.2125,-83.3533
US,Michigan,ECA,,Iosco County Airport,44.3128,-83.4223
US,Michigan,ESC,KESC,Delta County Airport,45.7227,-87.0937
US,Michigan,FNT,KFNT,Bishop International Airport,42.9654,-83.7436
US,Michigan,GDW,KGDW,Gladwin Zettel Memorial Airport,43.9706,-84.475
US,Michigan,GLR,KGLR,Gaylord Regional Airport,45.0135,-84.7036
US,Michigan,GRR,KGRR,Gerald R. Ford International Airport,42.8808,-85.5228
US,Michigan,HAI,KHAI,Three Rivers Municipal Airport (Dr. Haines Flying Field),41.9598,-85.5934
US,Michigan,HLM,KHLM,Park Township Airport,42.7959,-86.162
US,Michigan,HTL,KHTL,Roscommon County-Blodgett Memorial Airport,44.3598,-84.6711
US,Michigan,IMT,KIMT,Ford Airport,45.8184,-88.1145
US,Michigan,IRS,KIRS,Kirsch Municipal Airport,41.8133,-85.439
US,Michigan,ISQ,KISQ,Schoolcraft County Airport,45.9746,-86.1718
US,Michigan,IWD,KIWD,Gogebic-Iron County Airport,46.5275,-90.1314
US,Michigan,JXN,KJXN,Jackson County Airport (Reynolds Field),42.2598,-84.4594
US,Michigan,LAN,KLAN,Capital Region International Airport,42.7787,-84.5874
US,Michigan,LDM,KLDM,Mason County Airport,43.9625,-86.4079
US,Michigan,MBL,KMBL,Manistee County Blacker Airport,44.2724,-86.2469
US,Michigan,MBS,KMBS,MBS International Airport,43.5329,-84.0796
US,Michigan,MCD,KMCD,Mackinac Island Airport,45.8649,-84.6373
US,Michigan,MKG,KMKG,Muskegon County Airport,43.1695,-86.2382
US,Michigan,MNM,KMNM,Menominee-Marinette Twin County Airport,45.1267,-87.6384
US,Michigan,MOP,KMOP,Mount Pleasant Municipal Airport,43.6217,-84.7375
US,Michigan,MQT,KSAW,Sawyer International Airport,46.3536,-87.3954
US,Michigan,MTC,KMTC,Selfridge Air National Guard Base,42.6135,-82.8369
US,Michigan,NLE,,Jerry Tyler Memorial Airport,41.8359,-86.2252
US,Michigan,OSC,KOSC,Oscoda-Wurtsmith Airport,44.4516,-83.3941
US,Michigan,PHN,KPHN,St. Clair County International Airport,42.911,-82.5289
US,Michigan,PLN,KPLN,Pellston Regional Airport (Emmet County),45.5709,-84.7967
US,Michigan,PTK,KPTK,Oakland County International Airport,42.6655,-83.4201
US,Michigan,RCT,KRCT,Nartron Field,43.9,-85.5167
US,Michigan,TVC,KTVC,Cherry Capital Airport,44.7414,-85.5822
US,Michigan,TZC,KCFS,Tuscola Area Airport,43.4588,-83.4455
US,Michigan,WBK,,West Branch Community Airport,44.2448,-84.1798
US,Michigan,WBR,KRQB,Roben-Hood Airport,43.7226,-85.5041
US,Minnesota,AEL,KAEL,Albert Lea Municipal Airport,43.6815,-93.3672
US,Minnesota,AUM,KAUM,Austin Municipal Airport,43.665,-92.9334
US,Minnesota,AXN,KAXN,Alexandria Municipal Airport (Chandler Field),45.8663,-95.3947
US,Minnesota,BBB,KBBB,Benson Municipal Airport,45.3319,-95.6506
US,Minnesota,BDE,KBDE,Baudette International Airport,48.7284,-94.6122
US,Minnesota,BJI,KBJI,Bemidji Regional Airport,47.5094,-94.9337
US,Minnesota,BRD,KBRD,Brainerd Lakes Regional Airport,46.3983,-94.1381
US,Minnesota,CKN,KCKN,Crookston Municipal Airport (Kirkwood Field),47.8417,-96.6216
US,Minnesota,DLH,KDLH,Duluth International Airport,46.8421,-92.1936
US,Minnesota,DTL,KDTL,Detroit Lakes Airport (Wething Field),46.8252,-95.8857
US,Minnesota,EVM,KEVM,Eveleth-Virginia Municipal Airport,47.4251,-92.4985
US,Minnesota,FBL,KFBL,Faribault Municipal Airport,44.3284,-93.3125
US,Minnesota,FCM,KFCM,Flying Cloud Airport,44.8272,-93.4571
US,Minnesota,FFM,KFFM,Fergus Falls Municipal Airport (Einar Mickelson Field),46.2844,-96.1567
US,Minnesota,FRM,KFRM,Fairmont Municipal Airport,43.6439,-94.4156
US,Minnesota,GPZ,KGPZ,Grand Rapids-Itasca County Airport (Gordon Newstrom Field),47.2111,-93.5098
US,Minnesota,GRM,KCKC,Grand Marais/Cook County Airport,47.8383,-90.3829
US,Minnesota,HIB,KHIB,Range Regional Airport,47.3866,-92.839
US,Minnesota,ILL,KBDH,Willmar Municipal Airport (John L. Rice Field),45.1177,-95.1304
US,Minnesota,INL,KINL,Falls International Airport,48.5662,-93.4031
US,Minnesota,LYU,KELO,Ely Municipal Airport,47.8245,-91.8307
US,Minnesota,MIC,KMIC,Crystal Airport,45.062,-93.3539
US,Minnesota,MJQ,KMJQ,Jackson Municipal Airport,43.65,-94.9867
US,Minnesota,MKT,KMKT,Mankato Regional Airport,44.2216,-93.9187
US,Minnesota,MML,KMML,Southwest Minnesota Regional Airport (Marshall/Ryan Field),44.4505,-95.8219
US,Minnesota,MOX,KMOX,Morris Municipal Airport,45.5704,-95.9684
US,Minnesota,MSP,KMSP,Minneapolis-Saint Paul International Airport (Wold-Chamberlain Field),44.882,-93.2218
US,Minnesota,MVE,KMVE,Montevideo-Chippewa County Airport,44.9691,-95.7103
US,Minnesota,MWM,KMWM,Windom Municipal Airport,43.9134,-95.1094
US,Minnesota,NSL,KDVP,Slayton Municipal Airport,43.9868,-95.7826
US,Minnesota,ONA,KONA,Winona Municipal Airport (Max Conrad Field),44.0772,-91.7083
US,Minnesota,OTG,KOTG,Worthington Municipal Airport,43.6559,-95.584
US,Minnesota,OWA,KOWA,Owatonna Degner Regional Airport,44.1234,-93.2606
US,Minnesota,PKD,KPKD,Park Rapids Municipal Airport (Konshok Field),46.9006,-95.0731
US,Minnesota,ROX,KROX,Roseau Municipal Airport (Rudy Billberg Field),48.856,-95.697
US,Minnesota,RRT,KRRT,Warroad International Memorial Airport (Swede Carlson Field),48.9414,-95.3484
US,Minnesota,RST,KRST,Rochester International Airport,43.9083,-92.5
US,Minnesota,RWF,KRWF,Redwood Falls Municipal Airport,44.5472,-95.0823
US,Minnesota,STC,KSTC,St. Cloud Regional Airport,45.5466,-94.0599
US,Minnesota,STP,KSTP,St. Paul Downtown Airport (Holman Field),44.9345,-93.06
US,Minnesota,SYN,KSYN,Stanton Airfield,44.4755,-93.0163
US,Minnesota,TVF,KTVF,Thief River Falls Regional Airport,48.0657,-96.185
US,Minnesota,ULM,KULM,New Ulm Municipal Airport,44.3196,-94.5023
US,Mississippi,BIX,KBIX,Keesler Air Force Base,30.4104,-88.9244
US,Mississippi,CBM,KCBM,Columbus Air Force Base,33.6438,-88.4438
US,Mississippi,CKM,KCKM,Fletcher Field,34.2997,-90.5123
US,Mississippi,CRX,KCRX,Roscoe Turner Airport,34.915,-88.6035
US,Mississippi,DXE,KMBO,Bruce Campbell Field,32.4387,-90.1031
US,Mississippi,GLH,KGLH,Mid-Delta Regional Airport,33.4829,-90.9856
US,Mississippi,GPT,KGPT,Gulfport-Biloxi International Airport,30.4073,-89.0701
US,Mississippi,GTR,KGTR,Golden Triangle Regional Airport,33.4503,-88.5914
US,Mississippi,GWO,KGWO,Greenwood-Leflore Airport,33.4943,-90.0847
US,Mississippi,HBG,KHBG,Hattiesburg Bobby L. Chain Municipal Airport,31.2648,-89.2528
US,Mississippi,HEZ,KHEZ,Natchez-Adams County Airport (Hardy-Anders Field),31.6137,-91.2973
US,Mississippi,HKS,KHKS,Hawkins Field,32.3345,-90.2222
US,Mississippi,JAN,KJAN,Jackson-Evers International Airport,32.3112,-90.0759
US,Mississippi,LMS,KLMS,Louisville Winston County Airport,33.1462,-89.0625
US,Mississippi,LUL,KLUL,Hesler-Noble Field,31.6726,-89.1722
US,Mississippi,MCB,KMCB,McComb-Pike County Airport (John E. Lewis Field),31.1785,-90.4719
US,Mississippi,MEI,KMEI,Meridian Regional Airport (Key Field),32.3326,-88.7519
US,Mississippi,MMS,KMMS,Selfs Airport,34.2315,-90.2896
US,Mississippi,OLV,KOLV,Olive Branch Airport,34.9787,-89.7869
US,Mississippi,OSX,KOSX,Kosciusko-Attala County Airport,33.09,-89.5409
US,Mississippi,PCU,,Poplarville-Pearl River County Airport,30.786,-89.5045
US,Mississippi,PGL,KPQL,Trent Lott International Airport,30.4628,-88.5292
US,Mississippi,PIB,KPIB,Hattiesburg-Laurel Regional Airport,31.4671,-89.3371
US,Mississippi,RFK,,Rollang Field,32.9549,-90.8459
US,Mississippi,TUP,KTUP,Tupelo Regional Airport,34.2681,-88.7699
US,Mississippi,UBS,KUBS,Columbus-Lowndes County Airport,33.4654,-88.3803
US,Mississippi,UOX,KUOX,University-Oxford Airport,34.3843,-89.5368
US,Mississippi,UTM,KUTA,Tunica Municipal Airport,34.681,-90.3467
US,Mississippi,VKS,KVKS,Vicksburg Municipal Airport,32.2393,-90.9284
US,Missouri,AIZ,KAIZ,Lee C. Fine Memorial Airport,38.096,-92.5495
US,Missouri,BKG,KBBG,Branson Airport,36.5321,-93.2005
US,Missouri,BUM,KBUM,Butler Memorial Airport,38.2898,-94.3401
US,Missouri,CGI,KCGI,Cape Girardeau Regional Airport,37.2253,-89.5708
US,Missouri,COU,KCOU,Columbia Regional Airport,38.8181,-92.2196
US,Missouri,DMO,KDMO,Sedalia Regional Airport,38.7074,-93.1759
US,Missouri,EOS,KEOS,Neosho Hugh Robinson Airport,36.8065,-94.391
US,Missouri,FAM,KFAM,Farmington Regional Airport,37.7611,-90.4286
US,Missouri,IRK,KIRK,Kirksville Regional Airport,40.0935,-92.5449
US,Missouri,JEF,KJEF,Jefferson City Memorial Airport,38.5912,-92.1561
US,Missouri,JLN,KJLN,Joplin Regional Airport,37.1518,-94.4983
US,Missouri,KNK,PFKK,Kokhanok Airport,59.4332,-154.804
US,Missouri,KNT,KTKX,Kennett Memorial Airport,36.2259,-90.0366
US,Missouri,MAW,KMAW,Malden Regional Airport,36.6006,-89.9922
US,Missouri,MBY,KMBY,Omar N. Bradley Airport,39.4639,-92.427
US,Missouri,MCI,KMCI,Kansas City International Airport,39.2976,-94.7139
US,Missouri,MHL,KMHL,Marshall Memorial Municipal Airport,39.0958,-93.2029
US,Missouri,MKC,KMKC,Charles B. Wheeler Downtown Airport,39.1232,-94.5928
US,Missouri,NVD,KNVD,Nevada Municipal Airport,37.853,-94.3045
US,Missouri,OSB,,Grand Glaize-Osage Beach Airport,38.1142,-92.6826
US,Missouri,PLK,KPLK,M. Graham Clark Downtown Airport,36.6259,-93.2289
US,Missouri,POF,KPOF,Poplar Bluff Municipal Airport,36.7739,-90.3249
US,Missouri,SGF,KSGF,Springfield-Branson National Airport,37.2457,-93.3886
US,Missouri,SIK,KSIK,Sikeston Memorial Municipal Airport,36.8989,-89.5618
US,Missouri,STJ,KSTJ,Rosecrans Memorial Airport,39.7719,-94.9097
US,Missouri,STL,KSTL,Lambert-St. Louis International Airport,38.7487,-90.37
US,Missouri,SUS,KSUS,Spirit of St. Louis Airport,38.6621,-90.652
US,Missouri,SZL,KSZL,Whiteman Air Force Base,38.7303,-93.5479
US,Missouri,TBN,KTBN,Waynesville-St. Robert Regional Airport (Forney Field),37.7416,-92.1407
US,Missouri,TRX,KTRX,Trenton Municipal Airport,40.0836,-93.5908
US,Missouri,VIH,KVIH,Rolla National Airport,38.1274,-91.7695
US,Missouri,VRS,,Roy Otten Memorial Airfield,38.4278,-92.8752
US,Montana,BDX,,Broadus Airport,45.4725,-105.454
US,Montana,BIL,KBIL,Billings Logan International Airport,45.8077,-108.543
US,Montana,BTM,KBTM,Bert Mooney Airport,45.9548,-112.497
US,Montana,BZN,KBZN,Bozeman Yellowstone International Airport (Gallatin Field),45.7775,-111.153
US,Montana,CTB,KCTB,Cut Bank Municipal Airport,48.6084,-112.376
US,Montana,DLN,KDLN,Dillon Airport,45.2554,-112.553
US,Montana,DRU,,Drummond Airport,46.6208,-113.205
US,Montana,FCA,KGPI,Glacier Park International Airport,48.3105,-114.256
US,Montana,GDV,KGDV,Dawson Community Airport,47.1387,-104.807
US,Montana,GGW,KGGW,Glasgow Airport (Wokal Field),48.2125,-106.615
US,Montana,GTF,KGTF,Great Falls International Airport,47.482,-111.371
US,Montana,HLN,KHLN,Helena Regional Airport,46.6068,-111.983
US,Montana,HVR,KHVR,Havre City-County Airport,48.543,-109.762
US,Montana,JDN,KJDN,Jordan Airport,47.3288,-106.953
US,Montana,LVM,KLVM,Mission Field,45.6994,-110.448
US,Montana,LWT,KLWT,Lewistown Municipal Airport,47.0493,-109.467
US,Montana,MLK,,Malta Airport,48.3669,-107.919
US,Montana,MLS,KMLS,Miles City Airport (Frank Wiley Field),46.428,-105.886
US,Montana,MSO,KMSO,Missoula International Airport,46.9163,-114.091
US,Montana,OLF,KOLF,L. M. Clayton Airport,48.0945,-105.575
US,Montana,PWD,KPWD,Sher-Wood Airport,48.7903,-104.534
US,Montana,RPX,KRPX,Roundup Airport,46.4751,-108.541
US,Montana,SBX,KSBX,Shelby Airport,48.5407,-111.871
US,Montana,SDY,KSDY,Sidney-Richland Municipal Airport,47.7069,-104.193
US,Montana,THM,KTHM,Thompson Falls Airport,47.5735,-115.281
US,Montana,WYS,KWYS,Yellowstone Airport,44.6884,-111.118
US,Nebraska,AHF,,Arapahoe Municipal Airport,40.3395,-99.9065
US,Nebraska,AIA,KAIA,Alliance Municipal Airport,42.0532,-102.804
US,Nebraska,ANW,KANW,Ainsworth Regional Airport,42.5792,-99.993
US,Nebraska,BBW,KBBW,Broken Bow Municipal Airport,41.4365,-99.6422
US,Nebraska,BFF,KBFF,Western Nebraska Regional Airport (William B. Heilig Field),41.874,-103.596
US,Nebraska,BIE,KBIE,Beatrice Municipal Airport,40.3013,-96.7541
US,Nebraska,BUB,KBUB,Cram Field,41.7767,-99.1497
US,Nebraska,CDR,KCDR,Chadron Municipal Airport,42.8376,-103.095
US,Nebraska,EAR,KEAR,Kearney Regional Airport,40.727,-99.0068
US,Nebraska,EPG,,Browns Airport,40.8675,-96.11
US,Nebraska,FBY,KFBY,Fairbury Municipal Airport,40.183,-97.1693
US,Nebraska,FET,KFET,Fremont Municipal Airport,41.4491,-96.5202
US,Nebraska,GRI,KGRI,Central Nebraska Regional Airport,40.9675,-98.3096
US,Nebraska,GRN,KGRN,Gordon Municipal Airport,42.806,-102.175
US,Nebraska,HDE,KHDE,Brewster Field,40.4521,-99.3365
US,Nebraska,HSI,KHSI,Hastings Municipal Airport,40.6053,-98.4279
US,Nebraska,IML,KIML,Imperial Municipal Airport,40.5093,-101.621
US,Nebraska,LBF,KLBF,North Platte Regional Airport (Lee Bird Field),41.1262,-100.684
US,Nebraska,LNK,KLNK,Lincoln Airport,40.851,-96.7592
US,Nebraska,LXN,KLXN,Jim Kelly Field,40.791,-99.7773
US,Nebraska,MCK,KMCK,McCook Ben Nelson Regional Airport,40.2063,-100.592
US,Nebraska,MHN,KMHN,Hooker County Airport,42.0422,-101.059
US,Nebraska,MIQ,KMLE,Millard Airport,41.195,-96.1148
US,Nebraska,OFF,KOFF,Offutt Air Force Base,41.1183,-95.9125
US,Nebraska,OFK,KOFK,Norfolk Regional Airport (Karl Stefan Memorial Field),41.9855,-97.4351
US,Nebraska,OGA,KOGA,Searle Field,41.1195,-101.77
US,Nebraska,OKS,KOKS,Garden County Airport,41.401,-102.355
US,Nebraska,OLU,KOLU,Columbus Municipal Airport,41.448,-97.3426
US,Nebraska,ONL,KONL,O'Neill Municipal Airport (John L. Baker Field),42.4699,-98.6881
US,Nebraska,SCB,KSCB,Scribner State Airport,41.6103,-96.6299
US,Nebraska,SNY,KSNY,Sidney Municipal Airport (Lloyd W. Carr Field),41.1013,-102.985
US,Nebraska,VTN,KVTN,Miller Field,42.8578,-100.548
US,Nevada,ASQ,,Austin Airport,39.468,-117.195
US,Nevada,BAM,KBAM,Battle Mountain Airport (Lander County Airport),40.599,-116.874
US,Nevada,BLD,,Boulder City Municipal Airport,35.9475,-114.861
US,Nevada,BTY,KBTY,Beatty Airport,36.8611,-116.787
US,Nevada,CSN,KCXP,Carson Airport,39.1922,-119.734
US,Nevada,DRA,KDRA,Desert Rock Airport,36.6194,-116.033
US,Nevada,EKO,KEKO,Elko Regional Airport,40.8249,-115.792
US,Nevada,ELY,KELY,Ely Airport,39.2997,-114.842
US,Nevada,EUE,,Eureka Airport,39.6042,-116.005
US,Nevada,EYR,,Yerington Municipal Airport,39.0041,-119.158
US,Nevada,FLX,KFLX,Fallon Municipal Airport,39.4991,-118.749
US,Nevada,GAB,KGAB,Gabbs Airport,38.9241,-117.959
US,Nevada,HSH,KHND,Henderson Executive Airport,35.9728,-115.134
US,Nevada,HTH,KHTH,Hawthorne Industrial Airport,38.5444,-118.634
US,Nevada,INS,KINS,Creech Air Force Base,36.5872,-115.673
US,Nevada,KPT,,Jackpot Airport (Hayden Field),41.976,-114.658
US,Nevada,LAS,KLAS,Harry Reid International Airport,36.0801,-115.152
US,Nevada,LOL,KLOL,Derby Field,40.0664,-118.565
US,Nevada,LSV,KLSV,Nellis Air Force Base,36.2362,-115.034
US,Nevada,LWL,KLWL,Wells Municipal Airport (Harriet Field),41.1171,-114.922
US,Nevada,MEV,KMEV,Minden-Tahoe Airport,39.0003,-119.751
US,Nevada,MFH,,Mesquite Airport,36.835,-114.055
US,Nevada,NFL,KNFL,NAS Fallon (Van Voorhis Field),39.4166,-118.701
US,Nevada,RNO,KRNO,Reno-Tahoe International Airport,39.4991,-119.768
US,Nevada,TPH,KTPH,Tonopah Airport,38.0602,-117.087
US,Nevada,UCC,KUCC,Yucca Airstrip,36.9458,-116.038
US,Nevada,VGT,KVGT,North Las Vegas Airport,36.2107,-115.194
US,Nevada,WMC,KWMC,Winnemucca Municipal Airport,40.8966,-117.806
US,Nevada,XSD,KTNX,Tonopah Test Range Airport,37.7988,-116.781
US,New Hampshire,AFN,KAFN,Jaffrey Airport-Silver Ranch,42.8051,-72.003
US,New Hampshire,ASH,KASH,Nashua Airport (Boire Field),42.7817,-71.5148
US,New Hampshire,BML,KBML,Berlin Regional Airport,44.5754,-71.1759
US,New Hampshire,CNH,KCNH,Claremont Municipal Airport,43.3704,-72.3687
US,New Hampshire,CON,KCON,Concord Municipal Airport,43.2027,-71.5023
US,New Hampshire,EEN,KEEN,Dillant-Hopkins Airport,42.8984,-72.2708
US,New Hampshire,ERR,KERR,Errol Airport,44.7925,-71.1642
US,New Hampshire,HIE,KHIE,Mount Washington Regional Airport,44.3676,-71.5445
US,New Hampshire,LCI,KLCI,Laconia Municipal Airport,43.5727,-71.4189
US,New Hampshire,LEB,KLEB,Lebanon Municipal Airport,43.6261,-72.3042
US,New Hampshire,MHT,KMHT,Manchester-Boston Regional Airport,42.9326,-71.4357
US,New Hampshire,NWH,,Parlin Field,40.4625,-74.3306
US,New Hampshire,PSM,KPSM,Portsmouth International Airport at Pease,43.0779,-70.8233
US,New Jersey,ACY,KACY,Atlantic City International Airport,39.4576,-74.5772
US,New Jersey,BLM,KBLM,Monmouth Executive Airport,40.1869,-74.1249
US,New Jersey,CDW,KCDW,Essex County Airport,40.8752,-74.2814
US,New Jersey,EWR,KEWR,Newark Liberty International Airport,40.6925,-74.1686
US,New Jersey,JVI,,Central Jersey Regional Airport,40.5244,-74.5984
US,New Jersey,LDJ,KLDJ,Linden Airport,40.6174,-74.2446
US,New Jersey,LLY,KVAY,South Jersey Regional Airport,39.9429,-74.8457
US,New Jersey,MIV,KMIV,Millville Municipal Airport,39.3678,-75.0722
US,New Jersey,MJX,KMJX,Robert J. Miller Air Park (Ocean County Airport),39.9275,-74.2924
US,New Jersey,MMU,KMMU,Morristown Municipal Airport,40.7994,-74.4149
US,New Jersey,NEL,KNEL,NAES Lakehurst (Maxfield Field),40.0333,-74.3533
US,New Jersey,PCT,,Princeton Airport,40.3992,-74.6589
US,New Jersey,TEB,KTEB,Teterboro Airport,40.8501,-74.0608
US,New Jersey,TTN,KTTN,Trenton-Mercer Airport,40.2767,-74.8135
US,New Jersey,WRI,KWRI,McGuire Air Force Base,40.0156,-74.5917
US,New Jersey,WWD,KWWD,Cape May Airport,39.0085,-74.9083
US,New Mexico,ABQ,KABQ,Albuquerque International Sunport,35.0402,-106.609
US,New Mexico,ALM,KALM,Alamogordo-White Sands Regional Airport,32.8399,-105.991
US,New Mexico,ATS,KATS,Artesia Municipal Airport,32.8525,-104.468
US,New Mexico,AXX,KAXX,Angel Fire Airport,36.422,-105.29
US,New Mexico,CAO,KCAO,Clayton Municipal Airpark,36.4462,-103.167
US,New Mexico,CNM,KCNM,Cavern City Air Terminal,32.3375,-104.263
US,New Mexico,CVN,KCVN,Clovis Municipal Airport,34.4251,-103.079
US,New Mexico,CVS,KCVS,Cannon Air Force Base,34.3828,-103.322
US,New Mexico,DMN,KDMN,Deming Municipal Airport,32.2623,-107.721
US,New Mexico,ESO,,Ohkay Owingeh Airport,36.03,-106.046
US,New Mexico,FMN,KFMN,Four Corners Regional Airport,36.7412,-108.23
US,New Mexico,FSU,KFSU,Fort Sumner Municipal Airport,34.4834,-104.217
US,New Mexico,GNT,KGNT,Grants-Milan Municipal Airport,35.1673,-107.902
US,New Mexico,GUP,KGUP,Gallup Municipal Airport,35.5111,-108.789
US,New Mexico,HBB,,Hobbs Industrial Airpark,32.7668,-103.209
US,New Mexico,HMN,KHMN,Holloman Air Force Base,32.8525,-106.107
US,New Mexico,HOB,KHOB,Lea County Regional Airport,32.6875,-103.217
US,New Mexico,LAM,KLAM,Los Alamos County Airport,35.8798,-106.269
US,New Mexico,LRU,KLRU,Las Cruces International Airport,32.2894,-106.922
US,New Mexico,LSB,KLSB,Lordsburg Municipal Airport,32.3335,-108.692
US,New Mexico,LVS,KLVS,Las Vegas Municipal Airport,35.6542,-105.142
US,New Mexico,ONM,KONM,Socorro Municipal Airport,34.024,-106.898
US,New Mexico,ROW,KROW,Roswell International Air Center,33.3016,-104.531
US,New Mexico,RTN,KRTN,Raton Municipal Airport (Crews Field),36.7415,-104.502
US,New Mexico,RUI,KSRR,Sierra Blanca Regional Airport,33.4628,-105.535
US,New Mexico,SAF,KSAF,Santa Fe Municipal Airport,35.6171,-106.089
US,New Mexico,SVC,KSVC,Grant County Airport,32.6365,-108.156
US,New Mexico,TCC,KTCC,Tucumcari Municipal Airport,35.1828,-103.603
US,New Mexico,TCS,KTCS,Truth or Consequences Municipal Airport,33.2369,-107.272
US,New Mexico,TSM,KSKX,Taos Regional Airport,36.4582,-105.672
US,New Mexico,WSD,KWSD,Condron Army Airfield,32.3415,-106.403
US,New York,ALB,KALB,Albany International Airport,42.7483,-73.8017
US,New York,ART,KART,Watertown International Airport,43.9919,-76.0217
US,New York,AXB,,Maxson Airfield,44.312,-75.9003
US,New York,BGM,KBGM,Greater Binghamton Airport (Edwin A. Link Field),42.2087,-75.9798
US,New York,BUF,KBUF,Buffalo Niagara International Airport,42.9405,-78.7322
US,New York,COP,,Cooperstown-Westville Airport,42.6292,-74.891
US,New York,CTO,,Calverton Executive Airpark,40.9151,-72.7919
US,New York,CTX,,Cortland County Airport (Chase Field,42.5926,-76.2149
US,New York,DKK,KDKK,Chautauqua County/Dunkirk Airport,42.4933,-79.272
US,New York,DSV,KDSV,Dansville Municipal Airport,42.5709,-77.7131
US,New York,ELM,KELM,Elmira/Corning Regional Airport,42.1599,-76.8916
US,New York,ELZ,KELZ,Wellsville Municipal Airport (Tarantine Field),42.1095,-77.99
US,New York,FID,,Elizabeth Field,41.2513,-72.0316
US,New York,FOK,KFOK,Francis S. Gabreski Airport,40.8437,-72.6318
US,New York,FRG,KFRG,Republic Airport,40.7288,-73.4134
US,New York,GFL,KGFL,Floyd Bennett Memorial Airport,43.3412,-73.6103
US,New York,HCC,,Columbia County Airport,42.2913,-73.7103
US,New York,HPN,KHPN,Westchester County Airport,41.067,-73.7076
US,New York,HTO,KHTO,East Hampton Airport,40.9596,-72.2518
US,New York,IAG,KIAG,Niagara Falls International Airport,43.1073,-78.9462
US,New York,ISP,KISP,Long Island MacArthur Airport,40.7952,-73.1002
US,New York,ITH,KITH,Ithaca Tompkins Regional Airport,42.491,-76.4584
US,New York,JFK,KJFK,John F. Kennedy International Airport,40.6397,-73.7789
US,New York,JHW,KJHW,Chautauqua County-Jamestown Airport,42.1534,-79.258
US,New York,LGA,KLGA,LaGuardia Airport,40.775,-73.875
US,New York,LKP,KLKP,Lake Placid Airport,44.2645,-73.9619
US,New York,MGJ,KMGJ,Orange County Airport,41.51,-74.2646
US,New York,MSS,KMSS,Massena International Airport (Richards Field),44.9358,-74.8456
US,New York,MSV,KMSV,Sullivan County International Airport,41.7016,-74.795
US,New York,MTP,KMTP,Montauk Airport,41.0765,-71.9208
US,New York,OGS,KOGS,Ogdensburg International Airport,44.6819,-75.4655
US,New York,OIC,KOIC,Lt. Warren Eaton Airport,42.5666,-75.5241
US,New York,OLE,KOLE,Cattaraugus County-Olean Airport,42.2422,-78.3716
US,New York,ONH,,Oneonta Municipal Airport,42.5247,-75.0644
US,New York,PBG,KPBG,Plattsburgh International Airport,44.6509,-73.4681
US,New York,POU,KPOU,Dutchess County Airport,41.6266,-73.8842
US,New York,RME,KRME,Griffiss International Airport,43.2338,-75.407
US,New York,ROC,KROC,Greater Rochester International Airport,43.1189,-77.6724
US,New York,RSX,,Rouses Point Seaplane Base,44.9917,-73.3635
US,New York,SCH,KSCH,Schenectady County Airport,42.8525,-73.9289
US,New York,SLK,KSLK,Adirondack Regional Airport,44.3853,-74.2062
US,New York,SWF,KSWF,New York Stewart International Airport,41.5042,-74.1047
US,New York,SXY,,Sidney Municipal Airport,42.3026,-75.416
US,New York,SYR,KSYR,Syracuse Hancock International Airport,43.1112,-76.1063
US,New York,WSH,KHWV,Brookhaven Airport,40.8219,-72.8694
US,North Carolina,AVL,KAVL,Asheville Regional Airport,35.4362,-82.5418
US,North Carolina,CLT,KCLT,Charlotte Douglas International Airport,35.214,-80.9431
US,North Carolina,CTZ,KCTZ,Clinton-Sampson County Airport,34.9756,-78.3646
US,North Carolina,DUF,,Pine Island Airport,36.2535,-75.7885
US,North Carolina,ECG,KECG,Elizabeth City Regional Airport,36.2606,-76.1746
US,North Carolina,EDE,KEDE,Northeastern Regional Airport,36.0277,-76.5671
US,North Carolina,EWN,KEWN,Coastal Carolina Regional Airport,35.073,-77.0429
US,North Carolina,FAY,KFAY,Fayetteville Regional Airport (Grannis Field),34.9912,-78.8803
US,North Carolina,FBG,KFBG,Simmons Army Airfield,35.1318,-78.9367
US,North Carolina,FFA,KFFA,First Flight Airport,36.0182,-75.6713
US,North Carolina,GSB,KGSB,Seymour Johnson Air Force Base,35.3394,-77.9606
US,North Carolina,GSO,KGSO,Piedmont Triad International Airport,36.0978,-79.9373
US,North Carolina,HFF,KHFF,Mackall Army Airfield,35.0363,-79.4978
US,North Carolina,HKY,KHKY,Hickory Regional Airport,35.7411,-81.3895
US,North Carolina,HNC,KHSE,Billy Mitchell Airport,35.2328,-75.6178
US,North Carolina,IKB,KUKF,Wilkes County Airport,36.2228,-81.0983
US,North Carolina,ILM,KILM,Wilmington International Airport,34.2706,-77.9026
US,North Carolina,INT,KINT,Smith Reynolds Airport,36.1337,-80.222
US,North Carolina,ISO,KISO,Kinston Regional Jetport (Stallings Field),35.3314,-77.6088
US,North Carolina,LBT,KLBT,Lumberton Municipal Airport,34.6099,-79.0594
US,North Carolina,LFN,KLHZ,Triangle North Executive Airport (Franklin County Airport),36.0233,-78.3303
US,North Carolina,MEO,KMQI,Dare County Regional Airport,35.919,-75.6955
US,North Carolina,MRN,KMRN,Foothills Regional Airport (was Morganton-Lenoir Airport),35.8202,-81.6114
US,North Carolina,MXE,KMEB,Laurinburg-Maxton Airport,34.7919,-79.3658
US,North Carolina,OAJ,KOAJ,Albert J. Ellis Airport,34.8292,-77.6121
US,North Carolina,OCW,KOCW,Washington-Warren Airport (Warren Field),35.5705,-77.0498
US,North Carolina,PGV,KPGV,Pitt-Greenville Airport,35.6352,-77.3853
US,North Carolina,POB,KPOB,Pope Field (Pope AFB),35.1709,-79.0145
US,North Carolina,QWG,,Wilgrove Air Park,35.2138,-80.6701
US,North Carolina,RDU,KRDU,Raleigh-Durham International Airport,35.8776,-78.7875
US,North Carolina,RWI,KRWI,Rocky Mount-Wilson Regional Airport,35.8563,-77.8919
US,North Carolina,RZZ,KRZZ,Halifax County Airport,36.4395,-77.7093
US,North Carolina,SOP,KSOP,Moore County Airport,35.2374,-79.3912
US,North Carolina,SRW,KRUQ,Rowan County Airport,35.6459,-80.5203
US,North Carolina,SVH,KSVH,Statesville Regional Airport,35.7653,-80.9539
US,North Carolina,USA,KJQF,Concord Regional Airport,35.3878,-80.7091
US,North Dakota,ASY,KASY,Ashley Municipal Airport,46.0239,-99.3526
US,North Dakota,BIS,KBIS,Bismarck Municipal Airport,46.7727,-100.746
US,North Dakota,BWM,KBPP,Bowman Municipal Airport,46.1655,-103.301
US,North Dakota,DIK,KDIK,Dickinson Theodore Roosevelt Regional Airport,46.7974,-102.802
US,North Dakota,DVL,KDVL,Devils Lake Regional Airport (Devils Lake Municipal Airport),48.1142,-98.9088
US,North Dakota,FAR,KFAR,Hector International Airport,46.9207,-96.8158
US,North Dakota,GFK,KGFK,Grand Forks International Airport,47.9493,-97.1761
US,North Dakota,ISN,KISN,Sloulin Field International Airport,48.1779,-103.642
US,North Dakota,JMS,KJMS,Jamestown Regional Airport,46.9297,-98.6782
US,North Dakota,MIB,KMIB,Minot Air Force Base,48.4156,-101.358
US,North Dakota,MOT,KMOT,Minot International Airport,48.2594,-101.28
US,North Dakota,PMB,KPMB,Pembina Municipal Airport,48.9425,-97.2408
US,North Dakota,RDR,KRDR,Grand Forks Air Force Base,47.9611,-97.4012
US,North Dakota,VEX,,Tioga Municipal Airport,48.3805,-102.898
US,North Dakota,WAH,KBWP,Harry Stern Airport,46.2441,-96.6074
US,North Dakota,XWA,KXWA,Williston Basin International Airport,48.2597,-103.751
US,Ohio,AKC,KAKR,Akron Fulton International Airport,41.0375,-81.4669
US,Ohio,AOH,KAOH,Lima Allen County Airport,40.7069,-84.0267
US,Ohio,ATO,KUNI,Ohio University Airport (Snyder Field),39.211,-82.2314
US,Ohio,AXV,KAXV,Neil Armstrong Airport,40.4934,-84.2989
US,Ohio,BJJ,KBJJ,Wayne County Airport,40.8748,-81.8883
US,Ohio,BKL,KBKL,Cleveland Burke Lakefront Airport,41.5175,-81.6833
US,Ohio,CAK,KCAK,Akron-Canton Airport,40.9161,-81.4422
US,Ohio,CGF,KCGF,Cuyahoga County Airport,41.5651,-81.4864
US,Ohio,CLE,KCLE,Cleveland Hopkins International Airport,41.4117,-81.8498
US,Ohio,CMH,KCMH,John Glenn Columbus International Airport,39.998,-82.8919
US,Ohio,DAY,KDAY,Dayton International Airport,39.9024,-84.2194
US,Ohio,DFI,KDFI,Defiance Memorial Airport,41.3375,-84.4288
US,Ohio,FDY,KFDY,Findlay Airport,41.0135,-83.6687
US,Ohio,FFO,KFFO,Wright-Patterson Air Force Base,39.8261,-84.0483
US,Ohio,GQQ,KGQQ,Galion Municipal Airport,40.7534,-82.7238
US,Ohio,HAO,KHAO,Butler County Regional Airport,39.3638,-84.522
US,Ohio,HTW,KHTW,Lawrence County Airpark,38.4193,-82.4943
US,Ohio,ILN,KILN,Wilmington Air Park,39.4279,-83.7921
US,Ohio,JFN,KHZY,Northeast Ohio Regional Airport,41.778,-80.6955
US,Ohio,LCK,KLCK,Rickenbacker International Airport,39.8138,-82.9278
US,Ohio,LNN,KLNN,Lost Nation Airport,41.684,-81.3897
US,Ohio,LUK,KLUK,Cincinnati Municipal Airport (Lunken Field),39.1033,-84.4186
US,Ohio,MFD,KMFD,Mansfield Lahm Regional Airport,40.8214,-82.5166
US,Ohio,MGY,KMGY,Dayton-Wright Brothers Airport,39.589,-84.2249
US,Ohio,MNN,KMNN,Marion Municipal Airport,40.6162,-83.0635
US,Ohio,MWO,KMWO,Middletown Regional Airport (Hook Field),39.531,-84.3953
US,Ohio,OSU,KOSU,Ohio State University Airport,40.0798,-83.073
US,Ohio,OXD,KOXD,Miami University Airport,39.5023,-84.7844
US,Ohio,PHD,KPHD,Harry Clever Field,40.4709,-81.4197
US,Ohio,PMH,KPMH,Greater Portsmouth Regional Airport,38.8405,-82.8473
US,Ohio,SGH,KSGH,Springfield-Beckley Municipal Airport,39.8403,-83.8402
US,Ohio,SKY,KSKY,Griffing Sandusky Airport,41.4333,-82.6522
US,Ohio,TDZ,KTDZ,Toledo Executive Airport,41.5649,-83.4823
US,Ohio,TOL,KTOL,Toledo Express Airport,41.5868,-83.8078
US,Ohio,YNG,KYNG,Youngstown-Warren Regional Airport,41.2607,-80.6791
US,Ohio,ZZV,KZZV,Zanesville Municipal Airport,39.9444,-81.8921
US,Oklahoma,ADM,KADM,Ardmore Municipal Airport,34.303,-97.0196
US,Oklahoma,ADT,KADH,Ada Municipal Airport,34.8043,-96.6713
US,Oklahoma,AHD,,Ardmore Downtown Executive Airport,34.147,-97.1227
US,Oklahoma,ATE,,Antlers Municipal Airport,34.1926,-95.6499
US,Oklahoma,AXS,KAXS,Altus/Quartz Mountain Regional Airport,34.698,-99.3385
US,Oklahoma,BVO,KBVO,Bartlesville Municipal Airport,36.7625,-96.0112
US,Oklahoma,BWL,KBKN,Blackwell-Tonkawa Municipal Airport,36.7959,-97.317
US,Oklahoma,CHK,KCHK,Chickasha Municipal Airport,35.0974,-97.9677
US,Oklahoma,CKA,KCKA,Kegelman Air Force Auxiliary Field,36.7439,-98.1231
US,Oklahoma,CLK,KCLK,Clinton Regional Airport,35.5383,-98.9327
US,Oklahoma,CSM,KCSM,Clinton-Sherman Airport,35.3398,-99.2005
US,Oklahoma,CUH,KCUH,Cushing Municipal Airport,35.9499,-96.7731
US,Oklahoma,DUA,KDUA,Durant Regional Airport-Eaker Field,33.9423,-96.3945
US,Oklahoma,DUC,KDUC,Halliburton Field,34.4709,-97.9599
US,Oklahoma,ELK,KELK,Elk City Regional Business Airport,35.4308,-99.3943
US,Oklahoma,END,KEND,Vance Air Force Base,36.3392,-97.9165
US,Oklahoma,FDR,KFDR,Frederick Regional Airport,34.352,-98.9839
US,Oklahoma,FSI,KFSI,Henry Post Army Airfield (Fort Sill),34.6498,-98.4022
US,Oklahoma,GAG,KGAG,Gage Airport,36.2955,-99.7764
US,Oklahoma,GOK,KGOK,Guthrie-Edmond Regional Airport,35.8498,-97.4156
US,Oklahoma,GUY,KGUY,Guymon Municipal Airport,36.6851,-101.508
US,Oklahoma,HBR,KHBR,Hobart Regional Airport,34.9913,-99.0513
US,Oklahoma,HUJ,KHHW,Stan Stamper Municipal Airport,34.0348,-95.5419
US,Oklahoma,LAW,KLAW,Lawton-Fort Sill Regional Airport,34.5677,-98.4166
US,Oklahoma,LTS,KLTS,Altus Air Force Base,34.6671,-99.2667
US,Oklahoma,MIO,KMIO,Miami Municipal Airport,36.9092,-94.8875
US,Oklahoma,MKO,KMKO,Davis Field,35.6565,-95.3667
US,Oklahoma,MLC,KMLC,McAlester Regional Airport,34.8824,-95.7835
US,Oklahoma,NRI,,Grand Lake Regional Airport,36.5776,-94.8619
US,Oklahoma,OKC,KOKC,Will Rogers World Airport,35.3931,-97.6007
US,Oklahoma,OKM,KOKM,Okmulgee Regional Airport,35.6681,-95.9487
US,Oklahoma,OUN,KOUN,University of Oklahoma Westheimer Airport (Max Westheimer Airport),35.2456,-97.4721
US,Oklahoma,PNC,KPNC,Ponca City Regional Airport,36.732,-97.0998
US,Oklahoma,PWA,KPWA,Wiley Post Airport,35.5342,-97.6471
US,Oklahoma,RKR,KRKR,Robert S. Kerr Airport,35.0216,-94.6213
US,Oklahoma,RVS,KRVS,Richard Lloyd Jones Jr. Airport,36.0396,-95.9846
US,Oklahoma,SNL,KSNL,Shawnee Regional Airport,35.3579,-96.9428
US,Oklahoma,SUD,KSUD,Stroud Municipal Airport,35.7896,-96.6557
US,Oklahoma,SWO,KSWO,Stillwater Regional Airport,36.1612,-97.0857
US,Oklahoma,TIK,KTIK,Tinker Air Force Base,35.4147,-97.3866
US,Oklahoma,TUL,KTUL,Tulsa International Airport,36.1984,-95.8881
US,Oklahoma,WDG,KWDG,Enid Woodring Regional Airport,36.3792,-97.7911
US,Oklahoma,WWR,KWWR,West Woodward Airport,36.438,-99.5227
US,Oregon,AHM,,Ashland Municipal Airport,42.1903,-122.661
US,Oregon,AST,KAST,Astoria Regional Airport,46.158,-123.879
US,Oregon,BDY,,Bandon State Airport,43.0865,-124.408
US,Oregon,BKE,KBKE,Baker City Municipal Airport,44.8373,-117.809
US,Oregon,BNO,KBNO,Burns Municipal Airport,43.5919,-118.955
US,Oregon,BOK,KBOK,Brookings Airport,42.0746,-124.29
US,Oregon,CHZ,,Chiloquin State Airport,42.5794,-121.879
US,Oregon,CVO,KCVO,Corvallis Municipal Airport,44.4972,-123.29
US,Oregon,CZK,KCZK,Cascade Locks State Airport,45.6769,-121.879
US,Oregon,DLS,KDLS,Columbia Gorge Regional Airport (The Dalles Municipal Airport),45.6185,-121.167
US,Oregon,EUG,KEUG,Eugene Airport (Mahlon Sweet Airport),44.1246,-123.212
US,Oregon,FMU,,Florence Municipal Airport,43.9828,-124.111
US,Oregon,GOL,,Gold Beach Municipal Airport,42.4134,-124.424
US,Oregon,GTP,,Grants Pass Airport,42.5101,-123.388
US,Oregon,HES,KHRI,Hermiston Municipal Airport,45.8282,-119.259
US,Oregon,HIO,KHIO,Hillsboro Airport (Portland-Hillsboro Airport),45.5404,-122.95
US,Oregon,JDA,KGCD,Grant County Regional Airport (Ogilvie Field),44.4042,-118.963
US,Oregon,LGD,KLGD,La Grande/Union County Airport,45.2902,-118.007
US,Oregon,LKV,KLKV,Lake County Airport,42.1611,-120.399
US,Oregon,LMT,KLMT,Klamath Falls Airport,42.1561,-121.733
US,Oregon,MDJ,,Madras Municipal Airport,44.6702,-121.155
US,Oregon,MFR,KMFR,Rogue Valley International-Medford Airport,42.3742,-122.873
US,Oregon,ONO,KONO,Ontario Municipal Airport,44.0205,-117.014
US,Oregon,ONP,KONP,Newport Municipal Airport,44.5804,-124.058
US,Oregon,OTH,KOTH,Southwest Oregon Regional Airport,43.4171,-124.246
US,Oregon,OTK,KTMK,Tillamook Airport,45.4182,-123.814
US,Oregon,PDT,KPDT,Eastern Oregon Regional Airport,45.6951,-118.841
US,Oregon,PDX,KPDX,Portland International Airport,45.5887,-122.598
US,Oregon,PFC,KPFC,Pacific City State Airport,45.1998,-123.962
US,Oregon,PRZ,,Prineville Airport,44.287,-120.904
US,Oregon,RBG,KRBG,Roseburg Regional Airport,43.2388,-123.356
US,Oregon,RDM,KRDM,Roberts Field,44.2541,-121.15
US,Oregon,REO,KREO,Rome State Airport,42.5777,-117.885
US,Oregon,SLE,KSLE,McNary Field,44.9095,-123.003
US,Oregon,SUO,,Sunriver Airport,43.8763,-121.453
US,Oregon,TTD,KTTD,Portland-Troutdale Airport,45.5494,-122.401
US,Pennsylvania,ABE,KABE,Lehigh Valley International Airport,40.6521,-75.4408
US,Pennsylvania,AGC,KAGC,Allegheny County Airport,40.3544,-79.9302
US,Pennsylvania,AOO,KAOO,Altoona-Blair County Airport,40.2964,-78.32
US,Pennsylvania,AVP,KAVP,Wilkes-Barre/Scranton International Airport,41.3385,-75.7234
US,Pennsylvania,BBX,KLOM,Wings Field,40.1375,-75.2651
US,Pennsylvania,BFD,KBFD,Bradford Regional Airport,41.8031,-78.6401
US,Pennsylvania,BFP,KBVI,Beaver County Airport,40.7725,-80.3914
US,Pennsylvania,BTP,KBTP,Butler County Airport (K.W. Scholter Field),40.7769,-79.9497
US,Pennsylvania,CTH,KMQS,Chester County G. O. Carlson Airport,39.979,-75.8655
US,Pennsylvania,DUJ,KDUJ,DuBois Regional Airport,41.1783,-78.8987
US,Pennsylvania,DYL,KDYL,Doylestown Airport,40.333,-75.1223
US,Pennsylvania,ERI,KERI,Erie International Airport (Tom Ridge Field),42.0831,-80.1739
US,Pennsylvania,ESP,,StroudsburgPocono Airport,41.0358,-75.1606
US,Pennsylvania,FKL,KFKL,Venango Regional Airport (Chess Lamberton Field),41.3779,-79.8604
US,Pennsylvania,GTY,,Gettysburg Regional Airport,39.8409,-77.2742
US,Pennsylvania,HAR,KCXY,Capital City Airport,40.2171,-76.8515
US,Pennsylvania,HZL,KHZL,Hazleton Municipal Airport,40.9868,-75.9949
US,Pennsylvania,IDI,KIDI,Indiana County-Jimmy Stewart Airport,40.6322,-79.1055
US,Pennsylvania,IPT,KIPT,Williamsport Regional Airport,41.2418,-76.9211
US,Pennsylvania,JST,KJST,John Murtha Johnstown-Cambria County Airport,40.3161,-78.8339
US,Pennsylvania,LBE,KLBE,Arnold Palmer Regional Airport,40.2759,-79.4048
US,Pennsylvania,LHV,KLHV,William T. Piper Memorial Airport,41.1356,-77.4223
US,Pennsylvania,LNS,KLNS,Lancaster Airport,40.1217,-76.2961
US,Pennsylvania,MDT,KMDT,Harrisburg International Airport,40.1935,-76.7634
US,Pennsylvania,MEJ,KGKJ,Port Meadville Airport,41.6265,-80.2147
US,Pennsylvania,MPO,KMPO,Pocono Mountains Municipal Airport,41.1375,-75.3789
US,Pennsylvania,MUI,KMUI,Muir Army Airfield,40.4348,-76.5694
US,Pennsylvania,PHL,KPHL,Philadelphia International Airport,39.8719,-75.2411
US,Pennsylvania,PIT,KPIT,Pittsburgh International Airport,40.4915,-80.2329
US,Pennsylvania,PNE,KPNE,Northeast Philadelphia Airport,40.0819,-75.0106
US,Pennsylvania,PSB,KPSB,Mid-State Regional Airport,40.8835,-78.0863
US,Pennsylvania,PSQ,,Philadelphia Seaplane Base,39.859,-75.2996
US,Pennsylvania,PTW,KPTW,Heritage Field,40.2396,-75.5567
US,Pennsylvania,RDG,KRDG,Reading Regional Airport (Carl A. Spaatz Field),40.3785,-75.9652
US,Pennsylvania,RED,KRVL,Mifflin County Airport,40.6774,-77.6268
US,Pennsylvania,SCE,KUNV,University Park Airport,40.8493,-77.8487
US,Pennsylvania,SEG,KSEG,Penn Valley Airport,40.8206,-76.8639
US,Pennsylvania,STQ,KOYM,St. Marys Municipal Airport,41.4125,-78.5026
US,Pennsylvania,THV,KTHV,York Airport,39.917,-76.873
US,Pennsylvania,UKT,KUKT,Quakertown Airport,40.4352,-75.3819
US,Pennsylvania,WAY,KWAY,Greene County Airport,39.9001,-80.1331
US,Pennsylvania,WBW,KWBW,Wilkes-Barre Wyoming Valley Airport,41.2972,-75.8512
US,Pennsylvania,WSG,KAFJ,Washington County Airport,40.1365,-80.2902
US,Rhode Island,BID,KBID,Block Island State Airport,41.1681,-71.5778
US,Rhode Island,NCO,KOQU,Quonset State Airport,41.5971,-71.4121
US,Rhode Island,NPT,KUUU,Newport State Airport,41.5324,-71.2815
US,Rhode Island,PVD,KPVD,Theodore Francis Green State Airport,41.7326,-71.4204
US,Rhode Island,SFZ,KSFZ,North Central State Airport,41.9208,-71.4914
US,Rhode Island,WST,KWST,Westerly State Airport,41.3496,-71.8034
US,South Carolina,AIK,KAIK,Aiken Municipal Airport,33.6494,-81.685
US,South Carolina,AND,KAND,Anderson Regional Airport,34.4946,-82.7094
US,South Carolina,BFT,KARW,Beaufort County Airport,32.4122,-80.6344
US,South Carolina,BNL,KBNL,Barnwell Regional Airport,33.2578,-81.3883
US,South Carolina,BTN,KBBP,Marlboro County Jetport,34.6217,-79.7344
US,South Carolina,CAE,KCAE,Columbia Metropolitan Airport,33.9388,-81.1195
US,South Carolina,CDN,KCDN,Woodward Field,34.2836,-80.5649
US,South Carolina,CEU,KCEU,Oconee County Regional Airport,34.6719,-82.8865
US,South Carolina,CHS,KCHS,Charleston International Airport / Charleston Air Force Base,32.8986,-80.0405
US,South Carolina,CRE,KCRE,Grand Strand Airport,33.8117,-78.7239
US,South Carolina,CUB,KCUB,Jim Hamilton-L.B. Owens Airport,33.9705,-80.9952
US,South Carolina,DLL,KDLC,Dillon County Airport,34.4491,-79.3686
US,South Carolina,FLO,KFLO,Florence Regional Airport,34.1854,-79.7239
US,South Carolina,GDC,KGYH,Donaldson Center Airport,34.7583,-82.3764
US,South Carolina,GGE,KGGE,Georgetown County Airport,33.3117,-79.3196
US,South Carolina,GMU,KGMU,Greenville Downtown Airport,34.8479,-82.35
US,South Carolina,GRD,KGRD,Greenwood County Airport,34.2487,-82.1591
US,South Carolina,GSP,KGSP,Greenville-Spartanburg International Airport,34.8957,-82.2189
US,South Carolina,HCW,KCQW,Cheraw Municipal Airport (Lynch Bellinger Field,34.7129,-79.957
US,South Carolina,HHH,KHXD,Hilton Head Airport,32.2244,-80.6975
US,South Carolina,HVS,KHVS,Hartsville Regional Airport,34.4031,-80.1192
US,South Carolina,MMT,KMMT,McEntire Joint National Guard Base,33.9208,-80.8013
US,South Carolina,MYR,KMYR,Myrtle Beach International Airport,33.6797,-78.9283
US,South Carolina,OGB,KOGB,Orangeburg Municipal Airport,33.4568,-80.8595
US,South Carolina,RBW,KRBW,Lowcountry Regional Airport,32.921,-80.6406
US,South Carolina,RKH,KUZA,Rock Hill/York County Airport,34.9878,-81.0572
US,South Carolina,SSC,KSSC,Shaw Air Force Base,33.9727,-80.4706
US,South Carolina,USC,,Union County Airport/Troy Shelton Field,40.2249,-83.3519
US,South Dakota,ABR,KABR,Aberdeen Regional Airport,45.4491,-98.4218
US,South Dakota,ATY,KATY,Watertown Regional Airport,44.914,-97.1547
US,South Dakota,BKX,KBKX,Brookings Regional Airport,44.3048,-96.8169
US,South Dakota,CTK,,Canton Municipal Airport,43.3089,-96.571
US,South Dakota,FSD,KFSD,Sioux Falls Regional Airport (Joe Foss Field),43.582,-96.7419
US,South Dakota,HON,KHON,Huron Regional Airport,44.3852,-98.2285
US,South Dakota,LEM,KLEM,Lemmon Municipal Airport,45.9187,-102.106
US,South Dakota,LQK,KLQK,Pickens County Airport,34.81,-82.7029
US,South Dakota,MBG,KMBG,Mobridge Municipal Airport,45.5465,-100.408
US,South Dakota,MHE,KMHE,Mitchell Municipal Airport,43.7748,-98.0386
US,South Dakota,PHP,KPHP,Philip Airport,44.0486,-101.599
US,South Dakota,PIR,KPIR,Pierre Regional Airport,44.3827,-100.286
US,South Dakota,RAP,KRAP,Rapid City Regional Airport,44.0453,-103.057
US,South Dakota,RCA,KRCA,Ellsworth Air Force Base,44.145,-103.104
US,South Dakota,SPF,KSPF,Black Hills Airport (Clyde Ice Field),44.4803,-103.783
US,South Dakota,TTO,KBTN,Britton Municipal Airport,45.8152,-97.7431
US,South Dakota,XMD,KMDS,Madison Municipal Airport,44.016,-97.0859
US,South Dakota,XPR,KIEN,Pine Ridge Airport,43.0225,-102.511
US,South Dakota,YKN,KYKN,Chan Gurney Municipal Airport,42.9167,-97.3859
US,Tennessee,APT,KAPT,Marion County Airport (Brown Field),35.0607,-85.5853
US,Tennessee,BNA,KBNA,Nashville International Airport,36.1245,-86.6782
US,Tennessee,CHA,KCHA,Chattanooga Metropolitan Airport (Lovell Field),35.0353,-85.2038
US,Tennessee,CKV,KCKV,Clarksville-Montgomery County Regional Airport (Outlaw Field),36.6219,-87.415
US,Tennessee,CSV,KCSV,Crossville Memorial-Whitson Field,35.9513,-85.085
US,Tennessee,FYM,KFYM,Fayetteville Municipal Airport,35.0597,-86.564
US,Tennessee,GCY,KGCY,Greeneville-Greene County Municipal Airport,36.193,-82.8151
US,Tennessee,GHM,KGHM,Centerville Municipal Airport,35.8374,-87.4454
US,Tennessee,GKT,KGKT,Gatlinburg-Pigeon Forge Airport,35.8578,-83.5287
US,Tennessee,MEM,KMEM,Memphis International Airport,35.0424,-89.9767
US,Tennessee,MKL,KMKL,McKellar-Sipes Regional Airport,35.5999,-88.9156
US,Tennessee,MMI,KMMI,McMinn County Airport,35.3973,-84.5626
US,Tennessee,MOR,KMOR,Morristown Regional Airport (Moore-Murrell Airport),36.1795,-83.3752
US,Tennessee,MQY,KMQY,Smyrna Airport,36.009,-86.5201
US,Tennessee,MRC,KMRC,Maury County Airport,35.5541,-87.1789
US,Tennessee,NQA,KNQA,Millington Regional Jetport,35.3567,-89.8703
US,Tennessee,PHT,KPHT,Henry County Airport,36.3382,-88.3829
US,Tennessee,RKW,KRKW,Rockwood Municipal Airport,35.9223,-84.6897
US,Tennessee,RNC,KRNC,Warren County Memorial Airport,35.6987,-85.8438
US,Tennessee,SYI,KSYI,Shelbyville Municipal Airport (Bomar Field),35.5601,-86.4425
US,Tennessee,THA,KTHA,Tullahoma Regional Airport (William Northern Field),35.3801,-86.2464
US,Tennessee,TRI,KTRI,Tri-Cities Regional Airport,36.4752,-82.4074
US,Tennessee,TYS,KTYS,McGhee Tyson Airport,35.811,-83.994
US,Tennessee,UCY,KUCY,Everett-Stewart Regional Airport,36.3818,-88.9854
US,Tennessee,UOS,KUOS,Franklin County Airport,35.2051,-85.8981
US,Texas,ABI,KABI,Abilene Regional Airport,32.4113,-99.6819
US,Texas,ACT,KACT,Waco Regional Airport,31.6113,-97.2305
US,Texas,ADS,KADS,Addison Airport,32.9686,-96.8364
US,Texas,AFW,KAFW,Fort Worth Alliance Airport,32.9876,-97.3188
US,Texas,ALE,,Alpine-Casparis Municipal Airport,30.3842,-103.684
US,Texas,ALI,KALI,Alice International Airport,27.7409,-98.0269
US,Texas,AMA,KAMA,Rick Husband Amarillo International Airport,35.2194,-101.706
US,Texas,ASL,KASL,Harrison County Airport,32.5205,-94.3078
US,Texas,AUS,KAUS,Austin-Bergstrom International Airport,30.1945,-97.6699
US,Texas,,KBAZ,New Braunfels National Airport,29.703,-98.0411
US,Texas,BBC,KBYY,Bay City Municipal Airport,28.9733,-95.8635
US,Texas,BBD,KBBD,Curtis Field,31.1793,-99.3239
US,Texas,BGD,KBGD,Hutchinson County Airport,35.7009,-101.394
US,Texas,BIF,KBIF,Biggs Army Airfield,31.8495,-106.38
US,Texas,BKD,KBKD,Stephens County Airport,32.719,-98.891
US,Texas,BMT,KBMT,Beaumont Municipal Airport,30.0707,-94.2158
US,Texas,BPT,KBPT,Jack Brooks Regional Airport,29.9508,-94.0207
US,Texas,BRO,KBRO,Brownsville/South Padre Island International Airport,25.9068,-97.4259
US,Texas,BWD,KBWD,Brownwood Regional Airport,31.7936,-98.9565
US,Texas,BZT,,Eagle Air Park,28.9822,-95.5797
US,Texas,CCG,,Crane County Airport,31.4151,-102.363
US,Texas,CDS,KCDS,Childress Municipal Airport,34.4338,-100.288
US,Texas,CFD,KCFD,Coulter Field,30.7157,-96.3314
US,Texas,CLL,KCLL,Easterwood Airport (Easterwood Field),30.5886,-96.3638
US,Texas,CNW,KCNW,TSTC Waco Airport,31.6378,-97.0741
US,Texas,COM,KCOM,Coleman Municipal Airport,31.8411,-99.4036
US,Texas,COT,KCOT,Cotulla-La Salle County Airport,28.4567,-99.2203
US,Texas,CRP,KCRP,Corpus Christi International Airport,27.7704,-97.5012
US,Texas,CRS,KCRS,C. David Campbell Field (Corsicana Municipal Airport),32.0281,-96.4006
US,Texas,CUX,,Cuddihy Field,27.7218,-97.5121
US,Texas,CXO,KCXO,Lone Star Executive Airport,30.3518,-95.4145
US,Texas,CZT,KCZT,Dimmit County Airport,28.5222,-99.8236
US,Texas,DAL,KDAL,Dallas Love Field,32.8471,-96.8518
US,Texas,DFW,KDFW,Dallas/Fort Worth International Airport,32.8968,-97.038
US,Texas,DHT,KDHT,Dalhart Municipal Airport,36.0226,-102.547
US,Texas,DLF,KDLF,Laughlin Air Force Base,29.3595,-100.778
US,Texas,DRT,KDRT,Del Rio International Airport,29.3742,-100.927
US,Texas,DWH,KDWH,David Wayne Hooks Memorial Airport,30.0618,-95.5528
US,Texas,DYS,KDYS,Dyess Air Force Base,32.4208,-99.8546
US,Texas,EFD,KEFD,Ellington Field,29.6073,-95.1588
US,Texas,EGP,,Maverick County Memorial International Airport,28.8572,-100.512
US,Texas,ELA,KELA,Eagle Lake Airport,29.6006,-96.3219
US,Texas,ELP,KELP,El Paso International Airport,31.8072,-106.378
US,Texas,ERV,KERV,Kerrville Municipal Airport (Louis Schreiner Field),29.9767,-99.0857
US,Texas,ETN,KETN,Eastland Municipal Airport,32.4135,-98.8098
US,Texas,EVA,,Ben Bruce Memorial Airpark,30.321,-94.0735
US,Texas,FST,KFST,Fort Stockton-Pecos County Airport,30.9157,-102.916
US,Texas,FTW,KFTW,Fort Worth Meacham International Airport,32.8198,-97.3624
US,Texas,FWH,KNFW,NAS Fort Worth JRB / Carswell Field,32.7692,-97.4415
US,Texas,GGG,KGGG,East Texas Regional Airport,32.384,-94.7115
US,Texas,GLE,KGLE,Gainesville Municipal Airport,33.6514,-97.197
US,Texas,GLS,KGLS,Scholes International Airport at Galveston,29.2653,-94.8604
US,Texas,GRK,KGRK,Killeen-Fort Hood Regional Airport / Robert Gray Army Airfield,31.0672,-97.8289
US,Texas,GVT,KGVT,Majors Airport,33.0678,-96.0653
US,Texas,HCA,KBPG,Big Spring McMahon-Wrinkle Airport,32.2126,-101.522
US,Texas,HLR,KHLR,Hood Army Airfield,31.1387,-97.7145
US,Texas,HOU,KHOU,William P. Hobby Airport,29.6454,-95.2789
US,Texas,HPY,KHPY,Baytown Airport,29.7861,-94.9527
US,Texas,HRL,KHRL,Valley International Airport,26.2285,-97.6544
US,Texas,HTV,KUTS,Huntsville Municipal Airport (Bruce Brothers Regional),30.7469,-95.5872
US,Texas,IAH,KIAH,George Bush Intercontinental Airport,29.9844,-95.3414
US,Texas,ILE,KILE,Skylark Field,31.0858,-97.6865
US,Texas,INK,KINK,Winkler County Airport,31.7796,-103.201
US,Texas,IRB,,Iraan Municipal Airport,30.9057,-101.892
US,Texas,IWS,KIWS,West Houston Airport,29.8182,-95.6726
US,Texas,JAS,KJAS,Jasper County Airport (Bell Field),30.8857,-94.0349
US,Texas,JCT,KJCT,Kimble County Airport,30.5113,-99.7635
US,Texas,JCY,,LBJ Ranch Airport,30.2518,-98.6225
US,Texas,JKV,KJSO,Cherokee County Airport,31.8693,-95.2174
US,Texas,KIP,KCWC,Kickapoo Downtown Airport,33.8578,-98.4904
US,Texas,LBB,KLBB,Lubbock Preston Smith International Airport,33.6636,-101.823
US,Texas,LFK,KLFK,Angelina County Airport,31.234,-94.75
US,Texas,LJN,KLBX,Texas Gulf Coast Regional Airport,29.1086,-95.4621
US,Texas,LRD,KLRD,Laredo International Airport,27.5438,-99.4616
US,Texas,MAF,KMAF,Midland International Air and Space Port,31.9425,-102.202
US,Texas,MDD,KMDD,Midland Airpark,32.0365,-102.101
US,Texas,MFE,KMFE,McAllen Miller International Airport,26.1758,-98.2386
US,Texas,MGI,,Aransas National Wildlife Refuge Airport,28.323,-96.464
US,Texas,MIF,,Roy Hurd Memorial Airport,31.5825,-102.909
US,Texas,MPS,KOSA,Mount Pleasant Regional Airport,32.8981,-79.7828
US,Texas,MRF,KMRF,Marfa Municipal Airport,30.3711,-104.018
US,Texas,MWL,KMWL,Mineral Wells Airport,32.7816,-98.0602
US,Texas,NGP,KNGP,NAS Corpus Christi (Truax Field),27.6926,-97.2911
US,Texas,NGW,KNGW,NOLF Cabaniss Field,27.7027,-97.4389
US,Texas,NIR,,Chase Field Industrial Complex,28.3624,-97.6619
US,Texas,NQI,KNQI,NAS Kingsville,27.5072,-97.8097
US,Texas,OCH,KOCH,A.L. Mangham Jr. Regional Airport,31.578,-94.7095
US,Texas,ONY,KONY,Olney Municipal Airport,33.3522,-98.7915
US,Texas,OZA,KOZA,Ozona Municipal Airport,30.7353,-101.203
US,Texas,PEQ,KPEQ,Pecos Municipal Airport,31.3824,-103.511
US,Texas,PNX,KGYI,North Texas Regional Airport,33.7141,-96.6737
US,Texas,PPA,KPPA,Perry Lefors Field,35.613,-100.996
US,Texas,PRX,KPRX,Cox Field,33.6366,-95.4508
US,Texas,PSN,KPSN,Palestine Municipal Airport,31.7797,-95.7063
US,Texas,PSX,KPSX,Palacios Municipal Airport,28.7275,-96.251
US,Texas,PVW,KPVW,Hale County Airport,34.1681,-101.717
US,Texas,RBD,KRBD,Dallas Executive Airport,32.6809,-96.8682
US,Texas,RCK,KRCK,H. H. Coffield Regional Airport,30.6316,-96.9897
US,Texas,REE,,Reese Airpark,33.5903,-102.037
US,Texas,RFG,KRFG,Rooke Field,28.2886,-97.318
US,Texas,RGR,,Ranger Municipal Airport,32.4526,-98.6828
US,Texas,RKP,KRKP,Aransas County Airport,28.0868,-97.0446
US,Texas,RND,KRND,Randolph Air Force Base,29.5297,-98.2789
US,Texas,SAT,KSAT,San Antonio International Airport,29.5337,-98.4698
US,Texas,SEP,KSEP,Stephenville Clark Regional Airport,32.2153,-98.1777
US,Texas,SGR,KSGR,Sugar Land Regional Airport,29.6223,-95.6565
US,Texas,SJT,KSJT,San Angelo Regional Airport (Mathis Field),31.3577,-100.496
US,Texas,SKF,KSKF,Kelly Field Annex / Lackland Air Force Base,29.3842,-98.5811
US,Texas,SLR,KSLR,Sulphur Springs Municipal Airport,33.1598,-95.6211
US,Texas,SNK,KSNK,Winston Field Airport,32.6934,-100.95
US,Texas,SPS,KSPS,Sheppard Air Force Base / Wichita Falls Municipal Airport,33.9888,-98.4919
US,Texas,SSF,KSSF,Stinson Municipal Airport,29.337,-98.4711
US,Texas,SWW,KSWW,Avenger Field,32.4674,-100.467
US,Texas,TDW,KTDW,Tradewind Airport,35.1699,-101.826
US,Texas,TPL,KTPL,Draughon-Miller Central Texas Regional Airport,31.1525,-97.4078
US,Texas,TRL,KTRL,Terrell Municipal Airport,32.7092,-96.2674
US,Texas,TYR,KTYR,Tyler Pounds Regional Airport,32.3541,-95.4024
US,Texas,UVA,KUVA,Garner Field,29.2113,-99.7436
US,Texas,VCT,KVCT,Victoria Regional Airport,28.8526,-96.9185
US,Texas,VHN,KVHN,Culberson County Airport,31.0578,-104.784
US,Texas,WEA,KWEA,Parker County Airport,32.7463,-97.6824
US,Texas,WHT,KARM,Wharton Regional Airport,29.2543,-96.1544
US,Texas,WIB,,Wilbarger County Airport (FAA: F05),34.2257,-99.2838
US,Utah,BCE,KBCE,Bryce Canyon Airport,37.7064,-112.145
US,Utah,BDG,KBDG,Blanding Municipal Airport,37.5833,-109.483
US,Utah,BFG,,Bullfrog Basin Airport,37.5458,-110.713
US,Utah,BMC,KBMC,Brigham City Airport,41.5524,-112.062
US,Utah,BTF,KBTF,Skypark Airport,40.8694,-111.927
US,Utah,CDC,KCDC,Cedar City Regional Airport,37.701,-113.099
US,Utah,CNY,KCNY,Canyonlands Field,38.755,-109.755
US,Utah,DPG,KDPG,Michael Army Airfield,40.1994,-112.937
US,Utah,DTA,KDTA,Delta Municipal Airport,39.3806,-112.508
US,Utah,ENV,KENV,Wendover Airport,40.7187,-114.031
US,Utah,FIL,KFOM,Fillmore Municipal Airport,38.9583,-112.363
US,Utah,GMV,,Monument Valley Airport,37.0167,-110.201
US,Utah,HIF,KHIF,Hill Air Force Base,41.124,-111.973
US,Utah,HVE,KHVE,Hanksville Airport,38.418,-110.704
US,Utah,KNB,KKNB,Kanab Municipal Airport,37.0106,-112.531
US,Utah,LGU,KLGU,Logan-Cache Airport,41.7912,-111.852
US,Utah,MLF,KMLF,Milford Municipal Airport (Ben and Judy Briscoe Field),38.6097,-112.986
US,Utah,MSD,,Mount Pleasant Airport,39.5266,-111.476
US,Utah,MXC,,Monticello Airport,37.9324,-109.341
US,Utah,NPH,,Nephi Municipal Airport,39.7388,-111.872
US,Utah,NTJ,,Manti-Ephraim Airport,39.3291,-111.615
US,Utah,OGD,KOGD,Ogden-Hinckley Airport,41.1959,-112.012
US,Utah,PNU,,Panguitch Municipal Airport,37.8452,-112.392
US,Utah,PUC,KPUC,Carbon County Regional Airport,39.6139,-110.751
US,Utah,PVU,KPVU,Provo Municipal Airport,40.2192,-111.723
US,Utah,RIF,KRIF,Richfield Municipal Airport,38.7364,-112.099
US,Utah,ROL,,Roosevelt Municipal Airport,40.2783,-110.051
US,Utah,RVR,,Green River Municipal Airport,38.9614,-110.227
US,Utah,SBO,,Salina-Gunnison Airport,39.0291,-111.838
US,Utah,SGU,KSGU,St. George Regional Airport,37.0364,-113.51
US,Utah,SLC,KSLC,Salt Lake City International Airport,40.7884,-111.978
US,Utah,VEL,KVEL,Vernal Regional Airport,40.4409,-109.51
US,Vermont,BTV,KBTV,Burlington International Airport,44.4719,-73.1533
US,Vermont,EFK,KEFK,Newport State Airport,44.8888,-72.2292
US,Vermont,LLX,KCDA,Caledonia County Airport,44.5691,-72.018
US,Vermont,MPV,KMPV,Edward F. Knapp State Airport,44.2035,-72.5623
US,Vermont,MVL,KMVL,Morrisville-Stowe State Airport,44.5346,-72.614
US,Vermont,RUT,KRUT,Rutland - Southern Vermont Regional Airport,43.5294,-72.9496
US,Vermont,VSF,KVSF,Hartness State Airport,43.3436,-72.5173
US,Virginia,APH,KAPH,A.P. Hill Army Airfield,38.0689,-77.3183
US,Virginia,BCB,KBCB,Virginia Tech Montgomery Executive Airport,37.2076,-80.4078
US,Virginia,BKT,KBKT,Blackstone Army Airfield (Allen C. Perkinson Airport),37.0742,-77.9575
US,Virginia,CHO,KCHO,Charlottesville-Albemarle Airport,38.1386,-78.4529
US,Virginia,DAA,KDAA,Davison Army Airfield,38.715,-77.181
US,Virginia,DAN,KDAN,Danville Regional Airport,36.5729,-79.3361
US,Virginia,DCA,KDCA,Ronald Reagan Washington National Airport,38.8522,-77.0378
US,Virginia,DGN,KNDY,Naval Surface Warfare Center Dahlgren Division,38.3325,-77.0372
US,Virginia,FAF,KFAF,Felker Army Airfield,37.1325,-76.6088
US,Virginia,,KFCI,Chesterfield County Airport,37.406667,-77.525
US,Virginia,FKN,KFKN,Franklin Municipal-John Beverly Rose Airport,36.6981,-76.9038
US,Virginia,FRR,KFRR,Front Royal-Warren County Airport,38.9175,-78.2535
US,Virginia,GVE,KGVE,Gordonsville Municipal Airport,38.156,-78.1658
US,Virginia,HSP,KHSP,Ingalls Field,37.9514,-79.8339
US,Virginia,IAD,KIAD,Washington Dulles International Airport,38.9445,-77.4558
